"id","circuit_id","name","locality","country","latitude","longitude","length_km","turns","lap_record_time","lap_record_holder","lap_record_year","timezone_offset","map_image_url","wikipedia_url","created_at","updated_at","elevation_m"
"1","adelaide","Adelaide Street Circuit","Adelaide","Australia","-34.927200","138.617000","3.780","16","1:15.381","Damon Hill","1995","10",NULL,"https://en.wikipedia.org/wiki/Adelaide_Street_Circuit","2026-01-12 18:10:42","2026-01-14 18:35:09","50"
"2","ain-diab","Ain Diab","Casablanca","Morocco","33.578600","-7.687500","7.618","10","2:22.500","Stirling Moss","1958","1",NULL,"https://en.wikipedia.org/wiki/Ain-Diab_Circuit","2026-01-12 18:10:42","2026-01-14 18:35:09","50"
"3","aintree","Aintree","Liverpool","UK","53.476900","-2.940560","4.828","9","1:55.000","Jim Clark","1962","1",NULL,"https://en.wikipedia.org/wiki/Aintree_Motor_Racing_Circuit","2026-01-12 18:10:42","2026-01-14 18:35:09","20"
"4","albert_park","Albert Park Grand Prix Circuit","Melbourne","Australia","-37.849700","144.968000","5.278","14","1:19.813","Charles Leclerc","2024","11","https://media.formula1.com/image/upload/content/dam/fom-website/2018-redesign-assets/Circuit%20maps%2016x9/Australia_Circuit.png","https://en.wikipedia.org/wiki/Albert_Park_Circuit","2026-01-12 18:10:42","2026-01-14 18:11:27","5"
"5","americas","Circuit of the Americas","Austin","USA","30.132800","-97.641100","5.513","20","1:36.169","Charles Leclerc","2019","-5","https://media.formula1.com/image/upload/content/dam/fom-website/2018-redesign-assets/Circuit%20maps%2016x9/USA_Circuit.png","https://en.wikipedia.org/wiki/Circuit_of_the_Americas","2026-01-12 18:10:42","2026-01-14 18:11:27","163"
"6","anderstorp","Scandinavian Raceway","Anderstorp","Sweden","57.265300","13.604200","4.018","12","1:24.836","Niki Lauda","1977","2",NULL,"https://en.wikipedia.org/wiki/Scandinavian_Raceway","2026-01-12 18:10:42","2026-01-14 18:35:09","155"
"7","avus","AVUS","Berlin","Germany","52.480600","13.251400","8.300","4","2:04.500","Tony Brooks","1959","2",NULL,"https://en.wikipedia.org/wiki/AVUS","2026-01-12 18:10:42","2026-01-14 18:35:09","50"
"8","bahrain","Bahrain International Circuit","Sakhir","Bahrain","26.032500","50.510600","5.412","15","1:31.447","Pedro de la Rosa","2005","3","https://media.formula1.com/image/upload/content/dam/fom-website/2018-redesign-assets/Circuit%20maps%2016x9/Bahrain_Circuit.png","https://en.wikipedia.org/wiki/Bahrain_International_Circuit","2026-01-12 18:10:42","2026-01-14 18:11:27","12"
"9","baku","Baku City Circuit","Baku","Azerbaijan","40.372500","49.853300","6.003","20","1:43.009","Charles Leclerc","2019","4","https://media.formula1.com/image/upload/content/dam/fom-website/2018-redesign-assets/Circuit%20maps%2016x9/Baku_Circuit.png","https://en.wikipedia.org/wiki/Baku_City_Circuit","2026-01-12 18:10:42","2026-01-14 18:11:27","-28"
"10","boavista","Circuito da Boavista","Oporto","Portugal","41.170500","-8.673250","7.407","11","2:27.530","John Surtees","1960","1",NULL,"https://en.wikipedia.org/wiki/Circuito_da_Boavista","2026-01-12 18:10:42","2026-01-14 18:35:09","100"
"11","brands_hatch","Brands Hatch","Kent","UK","51.356900","0.263056","4.207","9","1:09.593","Nigel Mansell","1986","1",NULL,"https://en.wikipedia.org/wiki/Brands_Hatch","2026-01-12 18:10:42","2026-01-14 18:35:09","100"
"12","bremgarten","Circuit Bremgarten","Bern","Switzerland","46.958900","7.401940","7.280","12","2:39.700","Juan Manuel Fangio","1954","2",NULL,"https://en.wikipedia.org/wiki/Circuit_Bremgarten","2026-01-12 18:10:42","2026-01-14 18:35:09","560"
"13","buddh","Buddh International Circuit","Uttar Pradesh","India","28.348700","77.533100","5.125","16","1:27.249","Sebastian Vettel","2011","5",NULL,"https://en.wikipedia.org/wiki/Buddh_International_Circuit","2026-01-12 18:10:42","2026-01-14 18:35:09","219"
"14","catalunya","Circuit de Barcelona-Catalunya","Barcelona","Spain","41.570000","2.261110","4.657","16","1:18.149","Max Verstappen","2021","2","https://media.formula1.com/image/upload/content/dam/fom-website/2018-redesign-assets/Circuit%20maps%2016x9/Spain_Circuit.png","https://en.wikipedia.org/wiki/Circuit_de_Barcelona-Catalunya","2026-01-12 18:10:42","2026-01-14 18:11:27","109"
"15","charade","Charade Circuit","Clermont-Ferrand","France","45.747200","3.038890","8.055","51","2:53.900","Jim Clark","1965","2",NULL,"https://en.wikipedia.org/wiki/Charade_Circuit","2026-01-12 18:10:42","2026-01-14 18:35:09","850"
"16","dallas","Fair Park","Dallas","USA","32.777400","-96.758700","3.901","17","1:45.353","Niki Lauda","1984","-5",NULL,"https://en.wikipedia.org/wiki/Fair_Park","2026-01-12 18:10:42","2026-01-14 18:35:09","140"
"17","detroit","Detroit Street Circuit","Detroit","USA","42.329800","-83.040100","4.023","18","1:40.464","Ayrton Senna","1988","-4",NULL,"https://en.wikipedia.org/wiki/Detroit_street_circuit","2026-01-12 18:10:42","2026-01-14 18:35:09","180"
"18","dijon","Dijon-Prenois","Dijon","France","47.362500","4.899130","3.801","11","1:05.257","Alain Prost","1984","2",NULL,"https://en.wikipedia.org/wiki/Dijon-Prenois","2026-01-12 18:10:42","2026-01-14 18:35:09","450"
"19","donington","Donington Park","Castle Donington","UK","52.830600","-1.375280","4.023","12","1:18.029","Ayrton Senna","1993","1",NULL,"https://en.wikipedia.org/wiki/Donington_Park","2026-01-12 18:10:42","2026-01-14 18:35:09","98"
"20","essarts","Rouen-Les-Essarts","Rouen","France","49.330600","1.004580",NULL,NULL,NULL,NULL,NULL,"0",NULL,"https://en.wikipedia.org/wiki/Rouen-Les-Essarts","2026-01-12 18:10:42","2026-01-31 02:35:27",NULL
"21","estoril","Autódromo do Estoril","Estoril","Portugal","38.750600","-9.394170","4.350","13","1:14.859","David Coulthard","1996","1",NULL,"https://en.wikipedia.org/wiki/Estoril_Circuit","2026-01-12 18:10:42","2026-01-14 18:35:09","130"
"22","fuji","Fuji Speedway","Oyama","Japan","35.371700","138.927000","4.563","16","1:18.426","Felipe Massa","2008","9",NULL,"https://en.wikipedia.org/wiki/Fuji_Speedway","2026-01-12 18:10:42","2026-01-14 18:35:09","580"
"23","galvez","Autódromo Juan y Oscar Gálvez","Buenos Aires","Argentina","-34.694300","-58.459300","4.259","16","1:27.981","Gerhard Berger","1997","-3",NULL,"https://en.wikipedia.org/wiki/Autódromo_Juan_y_Oscar_Gálvez","2026-01-12 18:10:42","2026-01-14 18:35:09","25"
"24","george","Prince George Circuit","Eastern Cape Province","South Africa","-33.048600","27.873600",NULL,NULL,NULL,NULL,NULL,"0",NULL,"https://en.wikipedia.org/wiki/Prince_George_Circuit","2026-01-12 18:10:42","2026-01-31 02:35:27",NULL
"25","hockenheimring","Hockenheimring","Hockenheim","Germany","49.327800","8.565830","4.574","17","1:13.780","Kimi Räikkönen","2004","2","https://media.formula1.com/image/upload/content/dam/fom-website/2018-redesign-assets/Circuit%20maps%2016x9/Germany_Circuit.png","https://en.wikipedia.org/wiki/Hockenheimring","2026-01-12 18:10:42","2026-01-14 18:11:27","103"
"26","hungaroring","Hungaroring","Budapest","Hungary","47.578900","19.248600","4.381","14","1:16.627","Lewis Hamilton","2020","2","https://media.formula1.com/image/upload/content/dam/fom-website/2018-redesign-assets/Circuit%20maps%2016x9/Hungary_Circuit.png","https://en.wikipedia.org/wiki/Hungaroring","2026-01-12 18:10:42","2026-01-14 18:11:27","264"
"27","imola","Autodromo Enzo e Dino Ferrari","Imola","Italy","44.343900","11.716700","4.909","19","1:15.484","Lewis Hamilton","2020","2","https://media.formula1.com/image/upload/content/dam/fom-website/2018-redesign-assets/Circuit%20maps%2016x9/Emilia_Romagna_Circuit.png","https://en.wikipedia.org/wiki/Imola_Circuit","2026-01-12 18:10:42","2026-01-14 18:11:27","37"
"28","indianapolis","Indianapolis Motor Speedway","Indianapolis","USA","39.795000","-86.234700","4.192","13","1:10.399","Rubens Barrichello","2004","-4",NULL,"https://en.wikipedia.org/wiki/Indianapolis_Motor_Speedway","2026-01-12 18:10:42","2026-01-14 18:35:09","220"
"29","interlagos","Autódromo José Carlos Pace","São Paulo","Brazil","-23.703600","-46.699700","4.309","15","1:10.540","Valtteri Bottas","2018","-3","https://media.formula1.com/image/upload/content/dam/fom-website/2018-redesign-assets/Circuit%20maps%2016x9/Brazil_Circuit.png","https://en.wikipedia.org/wiki/Interlagos_Circuit","2026-01-12 18:10:42","2026-01-14 18:11:27","785"
"30","istanbul","Istanbul Park","Istanbul","Turkey","40.951700","29.405000","5.338","14","1:24.770","Juan Pablo Montoya","2005","3",NULL,"https://en.wikipedia.org/wiki/Istanbul_Park","2026-01-12 18:10:42","2026-01-14 18:11:27","130"
"31","jacarepagua","Autódromo Internacional Nelson Piquet","Rio de Janeiro","Brazil","-22.975600","-43.395000","5.031","14","1:32.507","Riccardo Patrese","1989","-3",NULL,"https://en.wikipedia.org/wiki/Autódromo_Internacional_Nelson_Piquet","2026-01-12 18:10:42","2026-01-14 18:35:09","10"
"32","jarama","Jarama","Madrid","Spain","40.617100","-3.585580","3.404","13","1:14.850","Gilles Villeneuve","1981","2",NULL,"https://en.wikipedia.org/wiki/Circuito_del_Jarama","2026-01-12 18:10:42","2026-01-14 18:35:09","650"
"33","jeddah","Jeddah Corniche Circuit","Jeddah","Saudi Arabia","21.631900","39.104400","6.174","27","1:30.734","Lewis Hamilton","2021","3","https://media.formula1.com/image/upload/content/dam/fom-website/2018-redesign-assets/Circuit%20maps%2016x9/Saudi_Arabia_Circuit.png","https://en.wikipedia.org/wiki/Jeddah_Corniche_Circuit","2026-01-12 18:10:42","2026-01-14 18:11:27","15"
"34","jerez","Circuito de Jerez","Jerez de la Frontera","Spain","36.708300","-6.034170","4.428","17","1:23.135","Heinz-Harald Frentzen","1997","2",NULL,"https://en.wikipedia.org/wiki/Circuito_de_Jerez","2026-01-12 18:10:42","2026-01-14 18:35:09","20"
"35","kyalami","Kyalami","Midrand","South Africa","-25.989400","28.076700","4.261","16","1:17.578","Nigel Mansell","1992","2",NULL,"https://en.wikipedia.org/wiki/Kyalami","2026-01-12 18:10:42","2026-01-14 18:35:09","1530"
"36","las_vegas","Las Vegas Street Circuit","Nevada","USA","36.116200","-115.174000",NULL,NULL,NULL,NULL,NULL,"0",NULL,"https://en.wikipedia.org/wiki/Las_Vegas_Strip_Circuit","2026-01-12 18:10:42","2026-01-31 02:35:27",NULL
"37","lemans","Le Mans","Le Mans","France","47.950000","0.224231","4.422","10","1:38.100","John Surtees","1967","2",NULL,"https://en.wikipedia.org/wiki/Bugatti_Circuit","2026-01-12 18:10:42","2026-01-17 12:02:11","60"
"38","long_beach","Long Beach","California","USA","33.765100","-118.189000","3.275","12","1:21.405","Niki Lauda","1983","-7",NULL,"https://en.wikipedia.org/wiki/Grand_Prix_of_Long_Beach","2026-01-12 18:10:42","2026-01-14 18:35:09","5"
"39","losail","Losail International Circuit","Lusail","Qatar","25.490000","51.454200","5.380","16","1:24.319","Max Verstappen","2023","3","https://media.formula1.com/image/upload/content/dam/fom-website/2018-redesign-assets/Circuit%20maps%2016x9/Qatar_Circuit.png","https://en.wikipedia.org/wiki/Lusail_International_Circuit","2026-01-12 18:10:42","2026-01-14 18:11:27","12"
"40","madring","Madring","Madrid","Spain","40.465280","-3.615280","5.470","16",NULL,NULL,NULL,"2",NULL,"https://en.wikipedia.org/wiki/Madrid_Grand_Prix","2026-01-12 18:10:42","2026-01-17 12:02:11","620"
"41","magny_cours","Circuit de Nevers Magny-Cours","Magny Cours","France","46.864200","3.163610","4.411","17","1:15.377","Michael Schumacher","2004","2",NULL,"https://en.wikipedia.org/wiki/Circuit_de_Nevers_Magny-Cours","2026-01-12 18:10:42","2026-01-14 18:35:09","250"
"42","marina_bay","Marina Bay Street Circuit","Marina Bay","Singapore","1.291400","103.864000","4.940","19","1:35.867","Lewis Hamilton","2023","8","https://media.formula1.com/image/upload/content/dam/fom-website/2018-redesign-assets/Circuit%20maps%2016x9/Singapore_Circuit.png","https://en.wikipedia.org/wiki/Marina_Bay_Street_Circuit","2026-01-12 18:10:42","2026-01-14 18:11:27","6"
"43","miami","Miami International Autodrome","Miami","USA","25.958100","-80.238900","5.412","19","1:29.708","Max Verstappen","2023","-4","https://media.formula1.com/image/upload/content/dam/fom-website/2018-redesign-assets/Circuit%20maps%2016x9/Miami_Circuit.png","https://en.wikipedia.org/wiki/Miami_International_Autodrome","2026-01-12 18:10:42","2026-01-14 18:11:27","2"
"44","monaco","Circuit de Monaco","Monte Carlo","Monaco","43.734700","7.420560","3.337","19","1:12.909","Lewis Hamilton","2021","2","https://media.formula1.com/image/upload/content/dam/fom-website/2018-redesign-assets/Circuit%20maps%2016x9/Monaco_Circuit.png","https://en.wikipedia.org/wiki/Circuit_de_Monaco","2026-01-12 18:10:42","2026-01-14 18:11:27","30"
"45","monsanto","Monsanto Park Circuit","Lisbon","Portugal","38.719700","-9.203060","5.440","12","2:02.890","Stirling Moss","1959","1",NULL,"https://en.wikipedia.org/wiki/Monsanto_Park_Circuit","2026-01-12 18:10:42","2026-01-17 12:02:11","150"
"46","montjuic","Montjuïc","Barcelona","Spain","41.366400","2.151670","3.791","13","1:23.800","Mario Andretti","1975","2",NULL,"https://en.wikipedia.org/wiki/Montjuïc_circuit","2026-01-12 18:10:42","2026-01-17 12:02:11","180"
"47","monza","Autodromo Nazionale di Monza","Monza","Italy","45.615600","9.281110","5.793","11","1:21.046","Rubens Barrichello","2004","2","https://media.formula1.com/image/upload/content/dam/fom-website/2018-redesign-assets/Circuit%20maps%2016x9/Italy_Circuit.png","https://en.wikipedia.org/wiki/Monza_Circuit","2026-01-12 18:10:42","2026-01-14 18:11:27","162"
"48","mosport","Mosport International Raceway","Ontario","Canada","44.048100","-78.675600","3.957","10","1:13.299","Jody Scheckter","1977","-4",NULL,"https://en.wikipedia.org/wiki/Canadian_Tire_Motorsport_Park","2026-01-12 18:10:42","2026-01-17 12:02:11","280"
"49","mugello","Autodromo Internazionale del Mugello","Mugello","Italy","43.997500","11.371900","5.245","15","1:18.833","Lewis Hamilton","2020","2",NULL,"https://en.wikipedia.org/wiki/Mugello_Circuit","2026-01-12 18:10:42","2026-01-14 18:11:27","292"
"50","nivelles","Nivelles-Baulers","Brussels","Belgium","50.621100","4.326940","3.724","12","1:11.310","Denny Hulme","1974","2",NULL,"https://en.wikipedia.org/wiki/Nivelles-Baulers","2026-01-12 18:10:42","2026-01-17 12:02:11","140"
"51","nurburgring","Nürburgring","Nürburg","Germany","50.335600","6.947500","5.148","15","1:29.468","Max Verstappen","2020","2",NULL,"https://en.wikipedia.org/wiki/Nürburgring","2026-01-12 18:10:42","2026-01-14 18:11:27","578"
"52","okayama","Okayama International Circuit","Okayama","Japan","34.915000","134.221000","3.703","13","1:14.023","Michael Schumacher","1995","9",NULL,"https://en.wikipedia.org/wiki/Okayama_International_Circuit","2026-01-12 18:10:42","2026-01-17 12:02:11","250"
"53","pedralbes","Circuit de Pedralbes","Barcelona","Spain","41.390300","2.116670","6.316","8","2:16.930","Juan Manuel Fangio","1954","2",NULL,"https://en.wikipedia.org/wiki/Pedralbes_Circuit","2026-01-12 18:10:42","2026-01-17 12:02:11","100"
"54","pescara","Pescara Circuit","Pescara","Italy","42.475000","14.150800","25.579","20","9:44.600","Stirling Moss","1957","2",NULL,"https://en.wikipedia.org/wiki/Pescara_Circuit","2026-01-12 18:10:42","2026-01-17 12:02:11","200"
"55","phoenix","Phoenix street circuit","Phoenix","USA","33.447900","-112.075000","3.798","14","1:26.758","Jean Alesi","1991","-7",NULL,"https://en.wikipedia.org/wiki/Phoenix_street_circuit","2026-01-12 18:10:42","2026-01-14 18:35:09","340"
"56","portimao","Autódromo Internacional do Algarve","Portimão","Portugal","37.227000","-8.626700","4.653","15","1:18.750","Lewis Hamilton","2020","1","https://media.formula1.com/image/upload/content/dam/fom-website/2018-redesign-assets/Circuit%20maps%2016x9/Portugal_Circuit.png","https://en.wikipedia.org/wiki/Algarve_International_Circuit","2026-01-12 18:10:42","2026-01-14 18:11:27","108"
"57","red_bull_ring","Red Bull Ring","Spielberg","Austria","47.219700","14.764700","4.318","10","1:05.619","Carlos Sainz","2020","2","https://media.formula1.com/image/upload/content/dam/fom-website/2018-redesign-assets/Circuit%20maps%2016x9/Austria_Circuit.png","https://en.wikipedia.org/wiki/Red_Bull_Ring","2026-01-12 18:10:42","2026-01-14 18:11:27","678"
"58","reims","Reims-Gueux","Reims","France","49.254200","3.930830","8.302","8","2:22.900","Jim Clark","1965","2",NULL,"https://en.wikipedia.org/wiki/Reims-Gueux","2026-01-12 18:10:42","2026-01-14 18:35:09","100"
"59","ricard","Circuit Paul Ricard","Le Castellet","France","43.250600","5.791670","5.842","15","1:32.740","Sebastian Vettel","2019","2","https://media.formula1.com/image/upload/content/dam/fom-website/2018-redesign-assets/Circuit%20maps%2016x9/France_Circuit.png","https://en.wikipedia.org/wiki/Paul_Ricard_Circuit","2026-01-12 18:10:42","2026-01-14 18:11:27","432"
"60","riverside","Riverside International Raceway","California","USA","33.937000","-117.273000","5.271","9","1:33.830","Dan Gurney","1960","-7",NULL,"https://en.wikipedia.org/wiki/Riverside_International_Raceway","2026-01-12 18:10:42","2026-01-17 12:02:11","450"
"61","rodriguez","Autódromo Hermanos Rodríguez","Mexico City","Mexico","19.404200","-99.090700","4.304","17","1:17.774","Valtteri Bottas","2021","-6","https://media.formula1.com/image/upload/content/dam/fom-website/2018-redesign-assets/Circuit%20maps%2016x9/Mexico_Circuit.png","https://en.wikipedia.org/wiki/Autódromo_Hermanos_Rodríguez","2026-01-12 18:10:42","2026-01-14 18:11:27","2285"
"62","sebring","Sebring International Raceway","Florida","USA","27.454700","-81.348300","8.369","17","3:18.200","Stirling Moss","1959","-4",NULL,"https://en.wikipedia.org/wiki/Sebring_International_Raceway","2026-01-12 18:10:42","2026-01-17 12:02:11","20"
"63","sepang","Sepang International Circuit","Kuala Lumpur","Malaysia","2.760830","101.738000","5.543","15","1:34.223","Juan Pablo Montoya","2004","8",NULL,"https://en.wikipedia.org/wiki/Sepang_International_Circuit","2026-01-12 18:10:42","2026-01-14 18:11:27","40"
"64","shanghai","Shanghai International Circuit","Shanghai","China","31.338900","121.220000","5.451","16","1:32.238","Michael Schumacher","2004","8","https://media.formula1.com/image/upload/content/dam/fom-website/2018-redesign-assets/Circuit%20maps%2016x9/China_Circuit.png","https://en.wikipedia.org/wiki/Shanghai_International_Circuit","2026-01-12 18:10:42","2026-01-14 18:11:27","5"
"65","silverstone","Silverstone Circuit","Silverstone","UK","52.078600","-1.016940","5.891","18","1:27.097","Max Verstappen","2020","1","https://media.formula1.com/image/upload/content/dam/fom-website/2018-redesign-assets/Circuit%20maps%2016x9/Great_Britain_Circuit.png","https://en.wikipedia.org/wiki/Silverstone_Circuit","2026-01-12 18:10:42","2026-01-14 18:11:27","153"
"66","sochi","Sochi Autodrom","Sochi","Russia","43.405700","39.957800","5.848","18","1:35.761","Lewis Hamilton","2019","3","https://media.formula1.com/image/upload/content/dam/fom-website/2018-redesign-assets/Circuit%20maps%2016x9/Russia_Circuit.png","https://en.wikipedia.org/wiki/Sochi_Autodrom","2026-01-12 18:10:42","2026-01-14 18:11:27","2"
"67","spa","Circuit de Spa-Francorchamps","Spa","Belgium","50.437200","5.971390","7.004","19","1:46.286","Valtteri Bottas","2018","2","https://media.formula1.com/image/upload/content/dam/fom-website/2018-redesign-assets/Circuit%20maps%2016x9/Belgium_Circuit.png","https://en.wikipedia.org/wiki/Circuit_de_Spa-Francorchamps","2026-01-12 18:10:42","2026-01-14 18:11:27","401"
"68","suzuka","Suzuka Circuit","Suzuka","Japan","34.843100","136.541000","5.807","18","1:30.983","Lewis Hamilton","2019","9","https://media.formula1.com/image/upload/content/dam/fom-website/2018-redesign-assets/Circuit%20maps%2016x9/Japan_Circuit.png","https://en.wikipedia.org/wiki/Suzuka_International_Racing_Course","2026-01-12 18:10:42","2026-01-14 18:11:27","45"
"69","tremblant","Circuit Mont-Tremblant","Quebec","Canada","46.187700","-74.609900",NULL,NULL,NULL,NULL,NULL,"0",NULL,"https://en.wikipedia.org/wiki/Circuit_Mont-Tremblant","2026-01-12 18:10:42","2026-01-31 02:35:27",NULL
"70","valencia","Valencia Street Circuit","Valencia","Spain","39.458900","-0.331667","5.419","25","1:38.683","Timo Glock","2009","2",NULL,"https://en.wikipedia.org/wiki/Valencia_Street_Circuit","2026-01-12 18:10:42","2026-01-14 18:35:09","5"
"71","vegas","Las Vegas Strip Street Circuit","Las Vegas","USA","36.114700","-115.173000","6.201","17","1:35.490","Oscar Piastri","2023","-8","https://media.formula1.com/image/upload/content/dam/fom-website/2018-redesign-assets/Circuit%20maps%2016x9/Las_Vegas_Circuit.png","https://en.wikipedia.org/wiki/Las_Vegas_Strip_Circuit","2026-01-12 18:10:42","2026-01-14 18:11:27","610"
"72","villeneuve","Circuit Gilles Villeneuve","Montreal","Canada","45.500000","-73.522800","4.361","14","1:13.078","Valtteri Bottas","2019","-4","https://media.formula1.com/image/upload/content/dam/fom-website/2018-redesign-assets/Circuit%20maps%2016x9/Canada_Circuit.png","https://en.wikipedia.org/wiki/Circuit_Gilles_Villeneuve","2026-01-12 18:10:42","2026-01-14 18:11:27","13"
"73","watkins_glen","Watkins Glen","New York State","USA","42.336900","-76.927200","5.430","11","1:33.620","Alan Jones","1980","-4",NULL,"https://en.wikipedia.org/wiki/Watkins_Glen_International","2026-01-12 18:10:42","2026-01-14 18:35:09","480"
"74","yas_marina","Yas Marina Circuit","Abu Dhabi","UAE","24.467200","54.603100","5.281","16","1:26.103","Max Verstappen","2021","4","https://media.formula1.com/image/upload/content/dam/fom-website/2018-redesign-assets/Circuit%20maps%2016x9/Abu_Dhabi_Circuit.png","https://en.wikipedia.org/wiki/Yas_Marina_Circuit","2026-01-12 18:10:42","2026-01-14 18:11:27","5"
"75","yeongam","Korean International Circuit","Yeongam County","Korea","34.733300","126.417000","5.615","18","1:39.605","Sebastian Vettel","2011","9",NULL,"https://en.wikipedia.org/wiki/Korean_International_Circuit","2026-01-12 18:10:42","2026-01-14 18:35:09","10"
"76","zandvoort","Circuit Park Zandvoort","Zandvoort","Netherlands","52.388800","4.540920","4.259","14","1:11.097","Lewis Hamilton","2021","2","https://media.formula1.com/image/upload/content/dam/fom-website/2018-redesign-assets/Circuit%20maps%2016x9/Netherlands_Circuit.png","https://en.wikipedia.org/wiki/Circuit_Zandvoort","2026-01-12 18:10:42","2026-01-14 18:11:27","5"
"77","zeltweg","Zeltweg","Styria","Austria","47.203900","14.747800","3.200","8","1:09.840","Jim Clark","1964","2",NULL,"https://en.wikipedia.org/wiki/Zeltweg_Airfield","2026-01-12 18:10:42","2026-01-17 12:02:11","678"
"78","zolder","Zolder","Heusden-Zolder","Belgium","50.989400","5.256940","4.262","10","1:20.040","Alain Prost","1984","2",NULL,"https://en.wikipedia.org/wiki/Circuit_Zolder","2026-01-12 18:10:42","2026-01-14 18:35:09","50"
"id","constructor_id","name","wikipedia_url","full_name","nationality_id","color_primary","color_secondary","logo_url","active","created_at","updated_at","color","helmet_url"
"1","adams","Adams","https://en.wikipedia.org/wiki/Adams_(constructor)",NULL,NULL,"#FFFFFF",NULL,NULL,"1","2026-01-12 18:10:00","2026-01-12 18:10:00",NULL,NULL
"2","afm","AFM","https://en.wikipedia.org/wiki/Alex_von_Falkenhausen_Motorenbau",NULL,NULL,"#FFFFFF",NULL,NULL,"1","2026-01-12 18:10:00","2026-01-12 18:10:00",NULL,NULL
"3","ags","AGS","https://en.wikipedia.org/wiki/Automobiles_Gonfaronnaises_Sportives",NULL,NULL,"#FFFFFF",NULL,NULL,"1","2026-01-12 18:10:00","2026-01-12 18:10:00",NULL,NULL
"4","alfa","Alfa Romeo","https://en.wikipedia.org/wiki/Alfa_Romeo_in_Formula_One","Alfa Romeo F1 Team",NULL,"#A50F2D","#FFFFFF",NULL,"1","2026-01-12 18:10:00","2026-02-01 21:45:38","#C92D4B",NULL
"5","alphatauri","AlphaTauri","https://en.wikipedia.org/wiki/Scuderia_AlphaTauri","Scuderia AlphaTauri",NULL,"#4E7C9B","#FFFFFF",NULL,"1","2026-01-12 18:10:00","2026-02-01 21:45:38","#6692FF",NULL
"6","alpine","Alpine F1 Team","https://en.wikipedia.org/wiki/Alpine_F1_Team","BWT Alpine F1 Team","8","#FF87BC","#FF82AB",NULL,"1","2026-01-12 18:10:00","2026-01-31 18:15:34","#FF87BC","img/helmets/AlpineV2Fix.png"
"7","alta","Alta","https://en.wikipedia.org/wiki/Alta_Car_and_Engineering_Company",NULL,NULL,"#FFFFFF",NULL,NULL,"1","2026-01-12 18:10:00","2026-01-12 18:10:00",NULL,NULL
"8","amon","Amon","https://en.wikipedia.org/wiki/Chris_Amon_Racing",NULL,NULL,"#FFFFFF",NULL,NULL,"1","2026-01-12 18:10:00","2026-01-12 18:10:00",NULL,NULL
"9","apollon","Apollon","https://en.wikipedia.org/wiki/Apollon_(Formula_One)",NULL,NULL,"#FFFFFF",NULL,NULL,"1","2026-01-12 18:10:00","2026-01-12 18:10:00",NULL,NULL
"10","arrows","Arrows","https://en.wikipedia.org/wiki/Arrows_Grand_Prix_International","Arrows",NULL,"#FFFFFF","#000000",NULL,"1","2026-01-12 18:10:00","2026-01-17 12:02:11","#FF6600",NULL
"11","arzani-volpini","Arzani-Volpini","https://en.wikipedia.org/wiki/Arzani-Volpini",NULL,NULL,"#FFFFFF",NULL,NULL,"1","2026-01-12 18:10:00","2026-01-12 18:10:00",NULL,NULL
"12","aston_martin","Aston Martin","https://en.wikipedia.org/wiki/Aston_Martin_in_Formula_One","Aston Martin Aramco F1 Team","1","#229971","#CEDC00",NULL,"1","2026-01-12 18:10:00","2026-01-31 18:15:34","#229971","img/helmets/AstonV2Fix.png"
"13","ats","ATS","https://en.wikipedia.org/wiki/ATS_Wheels",NULL,NULL,"#FFFFFF",NULL,NULL,"1","2026-01-12 18:10:00","2026-01-12 18:10:00",NULL,NULL
"14","audi","Audi","https://en.wikipedia.org/wiki/Audi_in_Formula_One",NULL,NULL,"#FF4D00",NULL,NULL,"1","2026-01-12 18:10:00","2026-02-01 19:35:51","#666666",NULL
"15","bar","BAR","https://en.wikipedia.org/wiki/British_American_Racing","BAR Honda",NULL,"#FFFFFF","#CC0000",NULL,"1","2026-01-12 18:10:00","2026-01-17 12:02:11","#FFFFFF",NULL
"16","behra-porsche","Behra-Porsche","https://en.wikipedia.org/wiki/Behra-Porsche",NULL,NULL,"#FFFFFF",NULL,NULL,"1","2026-01-12 18:10:00","2026-01-12 18:10:00",NULL,NULL
"17","bellasi","Bellasi","https://en.wikipedia.org/wiki/Bellasi",NULL,NULL,"#FFFFFF",NULL,NULL,"1","2026-01-12 18:10:00","2026-01-12 18:10:00",NULL,NULL
"18","benetton","Benetton","https://en.wikipedia.org/wiki/Benetton_Formula","Benetton Formula",NULL,"#FFFFFF","#FFFFFF",NULL,"1","2026-01-12 18:10:00","2026-01-17 12:02:11","#00A550",NULL
"19","bmw","BMW","https://en.wikipedia.org/wiki/BMW",NULL,NULL,"#FFFFFF",NULL,NULL,"1","2026-01-12 18:10:00","2026-01-12 18:10:00",NULL,NULL
"20","bmw_sauber","BMW Sauber","https://en.wikipedia.org/wiki/BMW_in_Formula_One","BMW Sauber F1 Team",NULL,"#FFFFFF","#FFFFFF",NULL,"1","2026-01-12 18:10:00","2026-01-17 12:02:11","#0066B1",NULL
"21","boro","Boro","https://en.wikipedia.org/wiki/Boro_(Formula_One)",NULL,NULL,"#FFFFFF",NULL,NULL,"1","2026-01-12 18:10:00","2026-01-12 18:10:00",NULL,NULL
"22","brabham","Brabham","https://en.wikipedia.org/wiki/Brabham","Brabham",NULL,"#FFFFFF","#FFD700",NULL,"1","2026-01-12 18:10:00","2026-01-17 12:02:11","#006633",NULL
"23","brabham-alfa_romeo","Brabham-Alfa Romeo","https://en.wikipedia.org/wiki/Brabham",NULL,NULL,"#FFFFFF",NULL,NULL,"1","2026-01-12 18:10:00","2026-01-12 18:10:00",NULL,NULL
"24","brabham-brm","Brabham-BRM","https://en.wikipedia.org/wiki/Brabham",NULL,NULL,"#FFFFFF",NULL,NULL,"1","2026-01-12 18:10:00","2026-01-12 18:10:00",NULL,NULL
"25","brabham-climax","Brabham-Climax","https://en.wikipedia.org/wiki/Brabham",NULL,NULL,"#FFFFFF",NULL,NULL,"1","2026-01-12 18:10:00","2026-01-12 18:10:00",NULL,NULL
"26","brabham-ford","Brabham-Ford","https://en.wikipedia.org/wiki/Brabham",NULL,NULL,"#FFFFFF",NULL,NULL,"1","2026-01-12 18:10:00","2026-01-12 18:10:00",NULL,NULL
"27","brabham-repco","Brabham-Repco","https://en.wikipedia.org/wiki/Brabham",NULL,NULL,"#FFFFFF",NULL,NULL,"1","2026-01-12 18:10:00","2026-01-12 18:10:00",NULL,NULL
"28","brawn","Brawn","https://en.wikipedia.org/wiki/Brawn_GP","Brawn GP",NULL,"#FFFFFF","#FFFFFF",NULL,"1","2026-01-12 18:10:00","2026-01-17 12:02:11","#B5F500",NULL
"29","brm","BRM","https://en.wikipedia.org/wiki/British_Racing_Motors",NULL,NULL,"#FFFFFF",NULL,NULL,"1","2026-01-12 18:10:00","2026-01-12 18:10:00",NULL,NULL
"30","brm-ford","BRM-Ford","https://en.wikipedia.org/wiki/British_Racing_Motors",NULL,NULL,"#FFFFFF",NULL,NULL,"1","2026-01-12 18:10:00","2026-01-12 18:10:00",NULL,NULL
"31","bromme","Bromme","https://en.wikipedia.org/wiki/Bromme",NULL,NULL,"#FFFFFF",NULL,NULL,"1","2026-01-12 18:10:00","2026-01-12 18:10:00",NULL,NULL
"32","brp","BRP","https://en.wikipedia.org/wiki/British_Racing_Partnership",NULL,NULL,"#FFFFFF",NULL,NULL,"1","2026-01-12 18:10:00","2026-01-12 18:10:00",NULL,NULL
"33","bugatti","Bugatti","https://en.wikipedia.org/wiki/Bugatti",NULL,NULL,"#FFFFFF",NULL,NULL,"1","2026-01-12 18:10:00","2026-01-12 18:10:00",NULL,NULL
"34","butterworth","Aston Butterworth","https://en.wikipedia.org/wiki/Aston_Butterworth",NULL,NULL,"#FFFFFF",NULL,NULL,"1","2026-01-12 18:10:00","2026-01-12 18:10:00",NULL,NULL
"35","cadillac","Cadillac","https://en.wikipedia.org/wiki/Cadillac_in_Formula_One",NULL,"13","#C9A227",NULL,NULL,"1","2026-01-12 18:10:00","2026-02-01 00:10:32","#C9A227","img/helmets/CadillacV2Fix.png"
"36","caterham","Caterham","https://en.wikipedia.org/wiki/Caterham_F1","Caterham F1 Team",NULL,"#FFFFFF","#FFD800",NULL,"1","2026-01-12 18:10:00","2026-01-17 12:02:11","#005030",NULL
"37","cisitalia","Cisitalia","https://en.wikipedia.org/wiki/Cisitalia",NULL,NULL,"#FFFFFF",NULL,NULL,"1","2026-01-12 18:10:00","2026-01-12 18:10:00",NULL,NULL
"38","coloni","Coloni","https://en.wikipedia.org/wiki/Scuderia_Coloni",NULL,NULL,"#FFFFFF",NULL,NULL,"1","2026-01-12 18:10:00","2026-01-12 18:10:00",NULL,NULL
"39","connaught","Connaught","https://en.wikipedia.org/wiki/Connaught_Engineering",NULL,NULL,"#FFFFFF",NULL,NULL,"1","2026-01-12 18:10:00","2026-01-12 18:10:00",NULL,NULL
"40","connew","Connew","https://en.wikipedia.org/wiki/Connew",NULL,NULL,"#FFFFFF",NULL,NULL,"1","2026-01-12 18:10:00","2026-01-12 18:10:00",NULL,NULL
"41","cooper","Cooper","https://en.wikipedia.org/wiki/Cooper_Car_Company",NULL,NULL,"#FFFFFF",NULL,NULL,"1","2026-01-12 18:10:00","2026-01-12 18:10:00",NULL,NULL
"42","cooper-alfa_romeo","Cooper-Alfa Romeo","https://en.wikipedia.org/wiki/Cooper_Car_Company",NULL,NULL,"#FFFFFF",NULL,NULL,"1","2026-01-12 18:10:00","2026-01-12 18:10:00",NULL,NULL
"43","cooper-ats","Cooper-ATS","https://en.wikipedia.org/wiki/Cooper_Car_Company",NULL,NULL,"#FFFFFF",NULL,NULL,"1","2026-01-12 18:10:00","2026-01-12 18:10:00",NULL,NULL
"44","cooper-borgward","Cooper-Borgward","https://en.wikipedia.org/wiki/Cooper_Car_Company",NULL,NULL,"#FFFFFF",NULL,NULL,"1","2026-01-12 18:10:00","2026-01-12 18:10:00",NULL,NULL
"45","cooper-brm","Cooper-BRM","https://en.wikipedia.org/wiki/Cooper_Car_Company",NULL,NULL,"#FFFFFF",NULL,NULL,"1","2026-01-12 18:10:00","2026-01-12 18:10:00",NULL,NULL
"46","cooper-castellotti","Cooper-Castellotti","https://en.wikipedia.org/wiki/Cooper_Car_Company",NULL,NULL,"#FFFFFF",NULL,NULL,"1","2026-01-12 18:10:00","2026-01-12 18:10:00",NULL,NULL
"47","cooper-climax","Cooper-Climax","https://en.wikipedia.org/wiki/Cooper_Car_Company",NULL,NULL,"#FFFFFF",NULL,NULL,"1","2026-01-12 18:10:00","2026-01-12 18:10:00",NULL,NULL
"48","cooper-ferrari","Cooper-Ferrari","https://en.wikipedia.org/wiki/Cooper_Car_Company",NULL,NULL,"#FFFFFF",NULL,NULL,"1","2026-01-12 18:10:00","2026-01-12 18:10:00",NULL,NULL
"49","cooper-ford","Cooper-Ford","https://en.wikipedia.org/wiki/Cooper_Car_Company",NULL,NULL,"#FFFFFF",NULL,NULL,"1","2026-01-12 18:10:00","2026-01-12 18:10:00",NULL,NULL
"50","cooper-maserati","Cooper-Maserati","https://en.wikipedia.org/wiki/Cooper_Car_Company",NULL,NULL,"#FFFFFF",NULL,NULL,"1","2026-01-12 18:10:00","2026-01-12 18:10:00",NULL,NULL
"51","cooper-osca","Cooper-OSCA","https://en.wikipedia.org/wiki/Cooper_Car_Company",NULL,NULL,"#FFFFFF",NULL,NULL,"1","2026-01-12 18:10:00","2026-01-12 18:10:00",NULL,NULL
"52","dallara","Dallara","https://en.wikipedia.org/wiki/Dallara",NULL,NULL,"#FFFFFF",NULL,NULL,"1","2026-01-12 18:10:00","2026-01-12 18:10:00",NULL,NULL
"53","de_tomaso-alfa_romeo","De Tomaso-Alfa Romeo","https://en.wikipedia.org/wiki/De_Tomaso",NULL,NULL,"#FFFFFF",NULL,NULL,"1","2026-01-12 18:10:00","2026-01-12 18:10:00",NULL,NULL
"54","de_tomaso-ferrari","De Tomaso-Ferrari","https://en.wikipedia.org/wiki/De_Tomaso",NULL,NULL,"#FFFFFF",NULL,NULL,"1","2026-01-12 18:10:00","2026-01-12 18:10:00",NULL,NULL
"55","de_tomaso-osca","De Tomaso-Osca","https://en.wikipedia.org/wiki/De_Tomaso",NULL,NULL,"#FFFFFF",NULL,NULL,"1","2026-01-12 18:10:00","2026-01-12 18:10:00",NULL,NULL
"56","deidt","Deidt","https://en.wikipedia.org/wiki/Emil_Diedt",NULL,NULL,"#FFFFFF",NULL,NULL,"1","2026-01-12 18:10:00","2026-01-12 18:10:00",NULL,NULL
"57","del_roy","Del Roy","https://en.wikipedia.org/wiki/Frank_DelRoy",NULL,NULL,"#FFFFFF",NULL,NULL,"1","2026-01-12 18:10:00","2026-01-12 18:10:00",NULL,NULL
"58","derrington","Derrington","https://en.wikipedia.org/wiki/Derrington-Francis",NULL,NULL,"#FFFFFF",NULL,NULL,"1","2026-01-12 18:10:00","2026-01-12 18:10:00",NULL,NULL
"59","dunn","Dunn","https://en.wikipedia.org/wiki/Dunn_Engineering",NULL,NULL,"#FFFFFF",NULL,NULL,"1","2026-01-12 18:10:00","2026-01-12 18:10:00",NULL,NULL
"60","eagle","Eagle","https://en.wikipedia.org/wiki/All_American_Racers",NULL,NULL,"#FFFFFF",NULL,NULL,"1","2026-01-12 18:10:00","2026-01-12 18:10:00",NULL,NULL
"61","eagle-climax","Eagle-Climax","https://en.wikipedia.org/wiki/All_American_Racers",NULL,NULL,"#FFFFFF",NULL,NULL,"1","2026-01-12 18:10:00","2026-01-12 18:10:00",NULL,NULL
"62","eagle-weslake","Eagle-Weslake","https://en.wikipedia.org/wiki/All_American_Racers",NULL,NULL,"#FFFFFF",NULL,NULL,"1","2026-01-12 18:10:00","2026-01-12 18:10:00",NULL,NULL
"63","elder","Elder","https://en.wikipedia.org/wiki/Edgar_Elder",NULL,NULL,"#FFFFFF",NULL,NULL,"1","2026-01-12 18:10:00","2026-01-12 18:10:00",NULL,NULL
"64","emeryson","Emeryson","https://en.wikipedia.org/wiki/Emeryson",NULL,NULL,"#FFFFFF",NULL,NULL,"1","2026-01-12 18:10:00","2026-01-12 18:10:00",NULL,NULL
"65","emw","EMW","https://en.wikipedia.org/wiki/Eisenacher_Motorenwerk",NULL,NULL,"#FFFFFF",NULL,NULL,"1","2026-01-12 18:10:00","2026-01-12 18:10:00",NULL,NULL
"66","enb","ENB","https://en.wikipedia.org/wiki/Écurie_Nationale_Belge",NULL,NULL,"#FFFFFF",NULL,NULL,"1","2026-01-12 18:10:00","2026-01-12 18:10:00",NULL,NULL
"67","ensign","Ensign","https://en.wikipedia.org/wiki/Ensign_Racing",NULL,NULL,"#FFFFFF",NULL,NULL,"1","2026-01-12 18:10:00","2026-01-12 18:10:00",NULL,NULL
"68","epperly","Epperly","https://en.wikipedia.org/wiki/Epperly",NULL,NULL,"#FFFFFF",NULL,NULL,"1","2026-01-12 18:10:00","2026-01-12 18:10:00",NULL,NULL
"69","era","ERA","https://en.wikipedia.org/wiki/English_Racing_Automobiles",NULL,NULL,"#FFFFFF",NULL,NULL,"1","2026-01-12 18:10:00","2026-01-12 18:10:00",NULL,NULL
"70","eurobrun","Euro Brun","https://en.wikipedia.org/wiki/EuroBrun",NULL,NULL,"#FFFFFF",NULL,NULL,"1","2026-01-12 18:10:00","2026-01-12 18:10:00",NULL,NULL
"71","ewing","Ewing","https://en.wikipedia.org/wiki/Wayne_Ewing",NULL,NULL,"#FFFFFF",NULL,NULL,"1","2026-01-12 18:10:00","2026-01-12 18:10:00",NULL,NULL
"72","ferguson","Ferguson","https://en.wikipedia.org/wiki/Ferguson_Research",NULL,NULL,"#FFFFFF",NULL,NULL,"1","2026-01-12 18:10:00","2026-01-12 18:10:00",NULL,NULL
"73","ferrari","Ferrari","https://en.wikipedia.org/wiki/Scuderia_Ferrari","Scuderia Ferrari","17","#E80020","#FFEB00",NULL,"1","2026-01-12 18:10:00","2026-01-31 18:15:34","#E80020","img/helmets/FerrariV2Fix.png"
"74","fittipaldi","Fittipaldi","https://en.wikipedia.org/wiki/Fittipaldi_Automotive",NULL,NULL,"#FFFFFF",NULL,NULL,"1","2026-01-12 18:10:00","2026-01-12 18:10:00",NULL,NULL
"75","fondmetal","Fondmetal","https://en.wikipedia.org/wiki/Fondmetal",NULL,NULL,"#FFFFFF",NULL,NULL,"1","2026-01-12 18:10:00","2026-01-12 18:10:00",NULL,NULL
"76","footwork","Footwork","https://en.wikipedia.org/wiki/Footwork_Arrows",NULL,NULL,"#FFFFFF",NULL,NULL,"1","2026-01-12 18:10:00","2026-01-12 18:10:00",NULL,NULL
"77","force_india","Force India","https://en.wikipedia.org/wiki/Racing_Point_Force_India","Sahara Force India F1 Team",NULL,"#FFFFFF","#F58020",NULL,"1","2026-01-12 18:10:00","2026-01-17 12:02:11","#FF80C7",NULL
"78","forti","Forti","https://en.wikipedia.org/wiki/Forti",NULL,NULL,"#FFFFFF",NULL,NULL,"1","2026-01-12 18:10:00","2026-01-12 18:10:00",NULL,NULL
"79","frazer_nash","Frazer Nash","https://en.wikipedia.org/wiki/Frazer_Nash",NULL,NULL,"#FFFFFF",NULL,NULL,"1","2026-01-12 18:10:00","2026-01-12 18:10:00",NULL,NULL
"80","fry","Fry","https://en.wikipedia.org/wiki/Fry_(racing_team)",NULL,NULL,"#FFFFFF",NULL,NULL,"1","2026-01-12 18:10:00","2026-01-12 18:10:00",NULL,NULL
"81","gilby","Gilby","https://en.wikipedia.org/wiki/Gilby",NULL,NULL,"#FFFFFF",NULL,NULL,"1","2026-01-12 18:10:00","2026-01-12 18:10:00",NULL,NULL
"82","gordini","Gordini","https://en.wikipedia.org/wiki/Gordini",NULL,NULL,"#FFFFFF",NULL,NULL,"1","2026-01-12 18:10:00","2026-01-12 18:10:00",NULL,NULL
"83","haas","Haas F1 Team","https://en.wikipedia.org/wiki/Haas_F1_Team","MoneyGram Haas F1 Team","13","#B6BABD","#E10600",NULL,"1","2026-01-12 18:10:00","2026-01-31 18:15:35","#B6BABD","img/helmets/HaasV2Fix.png"
"84","hall","Hall","https://en.wikipedia.org/wiki/Hall_(constructor)",NULL,NULL,"#FFFFFF",NULL,NULL,"1","2026-01-12 18:10:00","2026-01-12 18:10:00",NULL,NULL
"85","hesketh","Hesketh","https://en.wikipedia.org/wiki/Hesketh_Racing",NULL,NULL,"#FFFFFF",NULL,NULL,"1","2026-01-12 18:10:00","2026-01-12 18:10:00",NULL,NULL
"86","hill","Embassy Hill","https://en.wikipedia.org/wiki/Embassy_Hill",NULL,NULL,"#FFFFFF",NULL,NULL,"1","2026-01-12 18:10:00","2026-01-12 18:10:00",NULL,NULL
"87","honda","Honda","https://en.wikipedia.org/wiki/Honda_in_Formula_One","Honda Racing F1 Team",NULL,"#FFFFFF","#CC0000",NULL,"1","2026-01-12 18:10:00","2026-01-17 12:02:11","#FFFFFF",NULL
"88","hrt","HRT","https://en.wikipedia.org/wiki/HRT_Formula_1_Team",NULL,NULL,"#FFFFFF",NULL,NULL,"1","2026-01-12 18:10:00","2026-01-12 18:10:00",NULL,NULL
"89","hwm","HWM","https://en.wikipedia.org/wiki/Hersham_and_Walton_Motors",NULL,NULL,"#FFFFFF",NULL,NULL,"1","2026-01-12 18:10:00","2026-01-12 18:10:00",NULL,NULL
"90","iso_marlboro","Iso Marlboro","https://en.wikipedia.org/wiki/Frank_Williams_Racing_Cars",NULL,NULL,"#FFFFFF",NULL,NULL,"1","2026-01-12 18:10:00","2026-01-12 18:10:00",NULL,NULL
"91","jaguar","Jaguar","https://en.wikipedia.org/wiki/Jaguar_Racing","Jaguar Racing",NULL,"#FFFFFF","#FFFFFF",NULL,"1","2026-01-12 18:10:00","2026-01-17 12:02:11","#046B38",NULL
"92","jbw","JBW","https://en.wikipedia.org/wiki/JBW",NULL,NULL,"#FFFFFF",NULL,NULL,"1","2026-01-12 18:10:00","2026-01-12 18:10:00",NULL,NULL
"93","jordan","Jordan","https://en.wikipedia.org/wiki/Jordan_Grand_Prix","Jordan Grand Prix",NULL,"#FFFFFF","#000000",NULL,"1","2026-01-12 18:10:00","2026-01-17 12:02:11","#FFC700",NULL
"94","kauhsen","Kauhsen","https://en.wikipedia.org/wiki/Kauhsen",NULL,NULL,"#FFFFFF",NULL,NULL,"1","2026-01-12 18:10:00","2026-01-12 18:10:00",NULL,NULL
"95","klenk","Klenk","https://en.wikipedia.org/wiki/Klenk",NULL,NULL,"#FFFFFF",NULL,NULL,"1","2026-01-12 18:10:00","2026-01-12 18:10:00",NULL,NULL
"96","kojima","Kojima","https://en.wikipedia.org/wiki/Kojima_Engineering",NULL,NULL,"#FFFFFF",NULL,NULL,"1","2026-01-12 18:10:00","2026-01-12 18:10:00",NULL,NULL
"97","kurtis_kraft","Kurtis Kraft","https://en.wikipedia.org/wiki/Kurtis_Kraft",NULL,NULL,"#FFFFFF",NULL,NULL,"1","2026-01-12 18:10:00","2026-01-12 18:10:00",NULL,NULL
"98","kuzma","Kuzma","https://en.wikipedia.org/wiki/Eddie_Kuzma",NULL,NULL,"#FFFFFF",NULL,NULL,"1","2026-01-12 18:10:00","2026-01-12 18:10:00",NULL,NULL
"99","lago","Talbot-Lago","https://en.wikipedia.org/wiki/Talbot-Lago",NULL,NULL,"#FFFFFF",NULL,NULL,"1","2026-01-12 18:10:00","2026-01-12 18:10:00",NULL,NULL
"100","lambo","Lambo","https://en.wikipedia.org/wiki/Modena_(racing_team)",NULL,NULL,"#FFFFFF",NULL,NULL,"1","2026-01-12 18:10:00","2026-01-12 18:10:00",NULL,NULL
"1301","lancia","Lancia","https://en.wikipedia.org/wiki/Scuderia_Lancia",NULL,NULL,"#FFFFFF",NULL,NULL,"1","2026-01-12 18:27:06","2026-01-12 18:27:06",NULL,NULL
"1302","langley","Langley","https://en.wikipedia.org/wiki/Langley_(constructor)",NULL,NULL,"#FFFFFF",NULL,NULL,"1","2026-01-12 18:27:06","2026-01-12 18:27:06",NULL,NULL
"1303","larrousse","Larrousse","https://en.wikipedia.org/wiki/Larrousse",NULL,NULL,"#FFFFFF",NULL,NULL,"1","2026-01-12 18:27:06","2026-01-12 18:27:06",NULL,NULL
"1304","lds","LDS","https://en.wikipedia.org/wiki/LDS_(automobile)",NULL,NULL,"#FFFFFF",NULL,NULL,"1","2026-01-12 18:27:06","2026-01-12 18:27:06",NULL,NULL
"1305","lds-alfa_romeo","LDS-Alfa Romeo","https://en.wikipedia.org/wiki/LDS_(automobile)",NULL,NULL,"#FFFFFF",NULL,NULL,"1","2026-01-12 18:27:06","2026-01-12 18:27:06",NULL,NULL
"1306","lds-climax","LDS-Climax","https://en.wikipedia.org/wiki/LDS_(automobile)",NULL,NULL,"#FFFFFF",NULL,NULL,"1","2026-01-12 18:27:06","2026-01-12 18:27:06",NULL,NULL
"1307","lec","LEC","https://en.wikipedia.org/wiki/LEC_Refrigeration_Racing",NULL,NULL,"#FFFFFF",NULL,NULL,"1","2026-01-12 18:27:06","2026-01-12 18:27:06",NULL,NULL
"1308","lesovsky","Lesovsky","https://en.wikipedia.org/wiki/Lesovsky",NULL,NULL,"#FFFFFF",NULL,NULL,"1","2026-01-12 18:27:06","2026-01-12 18:27:06",NULL,NULL
"1309","leyton","Leyton House","https://en.wikipedia.org/wiki/Leyton_House_Racing",NULL,NULL,"#FFFFFF",NULL,NULL,"1","2026-01-12 18:27:06","2026-01-12 18:27:06",NULL,NULL
"1310","life","Life","https://en.wikipedia.org/wiki/Life_Racing_Engines",NULL,NULL,"#FFFFFF",NULL,NULL,"1","2026-01-12 18:27:06","2026-01-12 18:27:06",NULL,NULL
"1311","ligier","Ligier","https://en.wikipedia.org/wiki/Ligier","Ligier",NULL,"#FFFFFF","#FFFFFF",NULL,"1","2026-01-12 18:27:06","2026-01-17 12:02:11","#0066CC",NULL
"1312","lola","Lola","https://en.wikipedia.org/wiki/MasterCard_Lola",NULL,NULL,"#FFFFFF",NULL,NULL,"1","2026-01-12 18:27:06","2026-01-12 18:27:06",NULL,NULL
"1313","lotus-borgward","Lotus-Borgward","https://en.wikipedia.org/wiki/Team_Lotus",NULL,NULL,"#FFFFFF",NULL,NULL,"1","2026-01-12 18:27:06","2026-01-12 18:27:06",NULL,NULL
"1314","lotus-brm","Lotus-BRM","https://en.wikipedia.org/wiki/Team_Lotus",NULL,NULL,"#FFFFFF",NULL,NULL,"1","2026-01-12 18:27:06","2026-01-12 18:27:06",NULL,NULL
"1315","lotus-climax","Lotus-Climax","https://en.wikipedia.org/wiki/Team_Lotus",NULL,NULL,"#FFFFFF",NULL,NULL,"1","2026-01-12 18:27:06","2026-01-12 18:27:06",NULL,NULL
"1316","lotus-ford","Lotus-Ford","https://en.wikipedia.org/wiki/Team_Lotus",NULL,NULL,"#FFFFFF",NULL,NULL,"1","2026-01-12 18:27:06","2026-01-12 18:27:06",NULL,NULL
"1317","lotus-maserati","Lotus-Maserati","https://en.wikipedia.org/wiki/Team_Lotus",NULL,NULL,"#FFFFFF",NULL,NULL,"1","2026-01-12 18:27:06","2026-01-12 18:27:06",NULL,NULL
"1318","lotus-pw","Lotus-Pratt &amp; Whitney","https://en.wikipedia.org/wiki/Team_Lotus",NULL,NULL,"#FFFFFF",NULL,NULL,"1","2026-01-12 18:27:06","2026-01-12 18:27:06",NULL,NULL
"1319","lotus_f1","Lotus F1","https://en.wikipedia.org/wiki/Lotus_F1","Lotus F1 Team",NULL,"#FFFFFF","#C5A047",NULL,"1","2026-01-12 18:27:06","2026-01-17 12:02:11","#000000",NULL
"1320","lotus_racing","Lotus","https://en.wikipedia.org/wiki/Lotus_Racing",NULL,NULL,"#FFFFFF",NULL,NULL,"1","2026-01-12 18:27:06","2026-01-12 18:27:06",NULL,NULL
"1321","lyncar","Lyncar","https://en.wikipedia.org/wiki/Lyncar",NULL,NULL,"#FFFFFF",NULL,NULL,"1","2026-01-12 18:27:06","2026-01-12 18:27:06",NULL,NULL
"1322","maki","Maki","https://en.wikipedia.org/wiki/Maki_Engineering",NULL,NULL,"#FFFFFF",NULL,NULL,"1","2026-01-12 18:27:06","2026-01-12 18:27:06",NULL,NULL
"1323","manor","Manor Marussia","https://en.wikipedia.org/wiki/Manor_Motorsport","Manor Racing",NULL,"#FFFFFF","#E11A22",NULL,"1","2026-01-12 18:27:06","2026-01-17 12:02:11","#323232",NULL
"1324","march","March","https://en.wikipedia.org/wiki/March_Engineering",NULL,NULL,"#FFFFFF",NULL,NULL,"1","2026-01-12 18:27:06","2026-01-12 18:27:06",NULL,NULL
"1325","march-alfa_romeo","March-Alfa Romeo","https://en.wikipedia.org/wiki/March_Engineering",NULL,NULL,"#FFFFFF",NULL,NULL,"1","2026-01-12 18:27:06","2026-01-12 18:27:06",NULL,NULL
"1326","march-ford","March-Ford","https://en.wikipedia.org/wiki/March_Engineering",NULL,NULL,"#FFFFFF",NULL,NULL,"1","2026-01-12 18:27:06","2026-01-12 18:27:06",NULL,NULL
"1327","marchese","Marchese","https://en.wikipedia.org/wiki/Carl_Marchese",NULL,NULL,"#FFFFFF",NULL,NULL,"1","2026-01-12 18:27:06","2026-01-12 18:27:06",NULL,NULL
"1328","martini","Martini","https://en.wikipedia.org/wiki/Automobiles_Martini",NULL,NULL,"#FFFFFF",NULL,NULL,"1","2026-01-12 18:27:06","2026-01-12 18:27:06",NULL,NULL
"1329","marussia","Marussia","https://en.wikipedia.org/wiki/Marussia_F1","Marussia F1 Team",NULL,"#FFFFFF","#FFD800",NULL,"1","2026-01-12 18:27:06","2026-01-17 12:02:11","#6E0000",NULL
"1330","maserati","Maserati","https://en.wikipedia.org/wiki/Maserati",NULL,NULL,"#FFFFFF",NULL,NULL,"1","2026-01-12 18:27:06","2026-01-12 18:27:06",NULL,NULL
"1331","matra","Matra","https://en.wikipedia.org/wiki/Matra",NULL,NULL,"#FFFFFF",NULL,NULL,"1","2026-01-12 18:27:06","2026-01-12 18:27:06",NULL,NULL
"1332","matra-ford","Matra-Ford","https://en.wikipedia.org/wiki/Matra",NULL,NULL,"#FFFFFF",NULL,NULL,"1","2026-01-12 18:27:06","2026-01-12 18:27:06",NULL,NULL
"1333","mbm","MBM","https://en.wikipedia.org/wiki/Monteverdi_(automobile)",NULL,NULL,"#FFFFFF",NULL,NULL,"1","2026-01-12 18:27:06","2026-01-12 18:27:06",NULL,NULL
"1334","mcguire","McGuire","https://en.wikipedia.org/wiki/McGuire_(Formula_One)",NULL,NULL,"#FFFFFF",NULL,NULL,"1","2026-01-12 18:27:06","2026-01-12 18:27:06",NULL,NULL
"1335","mclaren","McLaren","https://en.wikipedia.org/wiki/McLaren","McLaren F1 Team","1","#FF8000","#47C7FC",NULL,"1","2026-01-12 18:27:06","2026-01-31 18:15:34","#FF8000","img/helmets/McLarenV2Fix.png"
"1336","mclaren-alfa_romeo","McLaren-Alfa Romeo","https://en.wikipedia.org/wiki/McLaren",NULL,NULL,"#FFFFFF",NULL,NULL,"1","2026-01-12 18:27:06","2026-01-12 18:27:06",NULL,NULL
"1337","mclaren-brm","McLaren-BRM","https://en.wikipedia.org/wiki/McLaren",NULL,NULL,"#FFFFFF",NULL,NULL,"1","2026-01-12 18:27:06","2026-01-12 18:27:06",NULL,NULL
"1338","mclaren-ford","McLaren-Ford","https://en.wikipedia.org/wiki/McLaren",NULL,NULL,"#FFFFFF",NULL,NULL,"1","2026-01-12 18:27:06","2026-01-12 18:27:06",NULL,NULL
"1339","mclaren-seren","McLaren-Serenissima","https://en.wikipedia.org/wiki/McLaren",NULL,NULL,"#FFFFFF",NULL,NULL,"1","2026-01-12 18:27:06","2026-01-12 18:27:06",NULL,NULL
"1340","mercedes","Mercedes","https://en.wikipedia.org/wiki/Mercedes-Benz_in_Formula_One","Mercedes-AMG Petronas F1 Team","7","#27F4D2","#000000",NULL,"1","2026-01-12 18:27:06","2026-01-31 18:15:34","#27F4D2","img/helmets/MercV2Fix.png"
"1341","merzario","Merzario","https://en.wikipedia.org/wiki/Merzario",NULL,NULL,"#FFFFFF",NULL,NULL,"1","2026-01-12 18:27:06","2026-01-12 18:27:06",NULL,NULL
"1342","meskowski","Meskowski","https://en.wikipedia.org/wiki/Meskowski",NULL,NULL,"#FFFFFF",NULL,NULL,"1","2026-01-12 18:27:06","2026-01-12 18:27:06",NULL,NULL
"1343","mf1","MF1","https://en.wikipedia.org/wiki/Midland_F1_Racing",NULL,NULL,"#FFFFFF",NULL,NULL,"1","2026-01-12 18:27:06","2026-01-12 18:27:06",NULL,NULL
"1344","milano","Milano","https://en.wikipedia.org/wiki/Scuderia_Milano",NULL,NULL,"#FFFFFF",NULL,NULL,"1","2026-01-12 18:27:06","2026-01-12 18:27:06",NULL,NULL
"1345","minardi","Minardi","https://en.wikipedia.org/wiki/Minardi","Minardi",NULL,"#FFFFFF","#FFD800",NULL,"1","2026-01-12 18:27:06","2026-01-17 12:02:11","#000000",NULL
"1346","moda","Andrea Moda","https://en.wikipedia.org/wiki/Andrea_Moda_Formula",NULL,NULL,"#FFFFFF",NULL,NULL,"1","2026-01-12 18:27:06","2026-01-12 18:27:06",NULL,NULL
"1347","moore","Moore","https://en.wikipedia.org/wiki/Lou_Moore",NULL,NULL,"#FFFFFF",NULL,NULL,"1","2026-01-12 18:27:06","2026-01-12 18:27:06",NULL,NULL
"1348","nichels","Nichels","https://en.wikipedia.org/wiki/Nichels",NULL,NULL,"#FFFFFF",NULL,NULL,"1","2026-01-12 18:27:06","2026-01-12 18:27:06",NULL,NULL
"1349","olson","Olson","https://en.wikipedia.org/wiki/Olson_(constructor)",NULL,NULL,"#FFFFFF",NULL,NULL,"1","2026-01-12 18:27:06","2026-01-12 18:27:06",NULL,NULL
"1350","onyx","Onyx","https://en.wikipedia.org/wiki/Onyx_Grand_Prix",NULL,NULL,"#FFFFFF",NULL,NULL,"1","2026-01-12 18:27:06","2026-01-12 18:27:06",NULL,NULL
"1351","osca","OSCA","https://en.wikipedia.org/wiki/O.S.C.A.",NULL,NULL,"#FFFFFF",NULL,NULL,"1","2026-01-12 18:27:06","2026-01-12 18:27:06",NULL,NULL
"1352","osella","Osella","https://en.wikipedia.org/wiki/Osella",NULL,NULL,"#FFFFFF",NULL,NULL,"1","2026-01-12 18:27:06","2026-01-12 18:27:06",NULL,NULL
"1353","pacific","Pacific","https://en.wikipedia.org/wiki/Pacific_Racing",NULL,NULL,"#FFFFFF",NULL,NULL,"1","2026-01-12 18:27:06","2026-01-12 18:27:06",NULL,NULL
"1354","pankratz","Pankratz","https://en.wikipedia.org/wiki/Pankratz",NULL,NULL,"#FFFFFF",NULL,NULL,"1","2026-01-12 18:27:06","2026-01-12 18:27:06",NULL,NULL
"1355","parnelli","Parnelli","https://en.wikipedia.org/wiki/Vel's_Parnelli_Jones_Racing",NULL,NULL,"#FFFFFF",NULL,NULL,"1","2026-01-12 18:27:06","2026-01-12 18:27:06",NULL,NULL
"1356","pawl","Pawl","https://en.wikipedia.org/wiki/Pawl_(constructor)",NULL,NULL,"#FFFFFF",NULL,NULL,"1","2026-01-12 18:27:06","2026-01-12 18:27:06",NULL,NULL
"1357","penske","Penske","https://en.wikipedia.org/wiki/Team_Penske",NULL,NULL,"#FFFFFF",NULL,NULL,"1","2026-01-12 18:27:06","2026-01-12 18:27:06",NULL,NULL
"1358","phillips","Phillips","https://en.wikipedia.org/wiki/Phillips_(constructor)",NULL,NULL,"#FFFFFF",NULL,NULL,"1","2026-01-12 18:27:06","2026-01-12 18:27:06",NULL,NULL
"1359","politoys","Politoys","https://en.wikipedia.org/wiki/Frank_Williams_Racing_Cars",NULL,NULL,"#FFFFFF",NULL,NULL,"1","2026-01-12 18:27:06","2026-01-12 18:27:06",NULL,NULL
"1360","porsche","Porsche","https://en.wikipedia.org/wiki/Porsche_in_motorsport",NULL,NULL,"#FFFFFF",NULL,NULL,"1","2026-01-12 18:27:06","2026-01-12 18:27:06",NULL,NULL
"1361","prost","Prost","https://en.wikipedia.org/wiki/Prost_Grand_Prix","Prost Grand Prix",NULL,"#FFFFFF","#FFFFFF",NULL,"1","2026-01-12 18:27:06","2026-01-17 12:02:11","#0033CC",NULL
"1362","protos","Protos","https://en.wikipedia.org/wiki/Protos_(constructor)",NULL,NULL,"#FFFFFF",NULL,NULL,"1","2026-01-12 18:27:06","2026-01-12 18:27:06",NULL,NULL
"1363","racing_point","Racing Point","https://en.wikipedia.org/wiki/Racing_Point_F1_Team","BWT Racing Point F1 Team",NULL,"#F596C8","#00A0DE",NULL,"1","2026-01-12 18:27:06","2026-02-01 21:46:55","#F596C8",NULL
"1364","rae","Rae","https://en.wikipedia.org/wiki/Johnny_Rae_(motorsport)",NULL,NULL,"#FFFFFF",NULL,NULL,"1","2026-01-12 18:27:06","2026-01-12 18:27:06",NULL,NULL
"1365","ram","RAM","https://en.wikipedia.org/wiki/RAM_Racing",NULL,NULL,"#FFFFFF",NULL,NULL,"1","2026-01-12 18:27:06","2026-01-12 18:27:06",NULL,NULL
"1366","rb","RB F1 Team","https://en.wikipedia.org/wiki/Racing_Bulls","Visa Cash App RB F1 Team","17","#6692FF","#FFFFFF",NULL,"1","2026-01-12 18:27:06","2026-01-31 18:15:35","#6692FF","img/helmets/RBF1V2Fix.png"
"1367","re","RE","https://en.wikipedia.org/wiki/Realpha",NULL,NULL,"#FFFFFF",NULL,NULL,"1","2026-01-12 18:27:06","2026-01-12 18:27:06",NULL,NULL
"1368","rebaque","Rebaque","https://en.wikipedia.org/wiki/Rebaque",NULL,NULL,"#FFFFFF",NULL,NULL,"1","2026-01-12 18:27:06","2026-01-12 18:27:06",NULL,NULL
"1369","red_bull","Red Bull","https://en.wikipedia.org/wiki/Red_Bull_Racing","Oracle Red Bull Racing","21","#3671C6","#1B3A6D",NULL,"1","2026-01-12 18:27:06","2026-01-31 18:15:34","#3671C6","img/helmets/RedBullV2Fix.png"
"1370","renault","Renault","https://en.wikipedia.org/wiki/Renault_in_Formula_One","Renault F1 Team",NULL,"#FFF500","#000000",NULL,"1","2026-01-12 18:27:06","2026-02-01 21:46:55","#FFF500",NULL
"1371","rial","Rial","https://en.wikipedia.org/wiki/Rial_Racing",NULL,NULL,"#FFFFFF",NULL,NULL,"1","2026-01-12 18:27:06","2026-01-12 18:27:06",NULL,NULL
"1372","sauber","Audi","https://en.wikipedia.org/wiki/Sauber_Motorsport","Audi Formula Racing","7","#FF4D00","#000000",NULL,"1","2026-01-12 18:27:06","2026-01-31 18:15:35","#FF4D00","img/helmets/KickV2Fix.png"
"1373","scarab","Scarab","https://en.wikipedia.org/wiki/Scarab_(constructor)",NULL,NULL,"#FFFFFF",NULL,NULL,"1","2026-01-12 18:27:06","2026-01-12 18:27:06",NULL,NULL
"1374","schroeder","Schroeder","https://en.wikipedia.org/wiki/Gordon_Schroeder",NULL,NULL,"#FFFFFF",NULL,NULL,"1","2026-01-12 18:27:06","2026-01-12 18:27:06",NULL,NULL
"1375","scirocco","Scirocco","https://en.wikipedia.org/wiki/Scirocco-Powell",NULL,NULL,"#FFFFFF",NULL,NULL,"1","2026-01-12 18:27:06","2026-01-12 18:27:06",NULL,NULL
"1376","shadow","Shadow","https://en.wikipedia.org/wiki/Shadow_Racing_Cars",NULL,NULL,"#FFFFFF",NULL,NULL,"1","2026-01-12 18:27:06","2026-01-12 18:27:06",NULL,NULL
"1377","shadow-ford","Shadow-Ford","https://en.wikipedia.org/wiki/Shadow_Racing_Cars",NULL,NULL,"#FFFFFF",NULL,NULL,"1","2026-01-12 18:27:06","2026-01-12 18:27:06",NULL,NULL
"1378","shadow-matra","Shadow-Matra","https://en.wikipedia.org/wiki/Shadow_Racing_Cars",NULL,NULL,"#FFFFFF",NULL,NULL,"1","2026-01-12 18:27:06","2026-01-12 18:27:06",NULL,NULL
"1379","shannon","Shannon","https://en.wikipedia.org/wiki/Shannon_Racing_Cars",NULL,NULL,"#FFFFFF",NULL,NULL,"1","2026-01-12 18:27:06","2026-01-12 18:27:06",NULL,NULL
"1380","sherman","Sherman","https://en.wikipedia.org/wiki/Roy_Sherman",NULL,NULL,"#FFFFFF",NULL,NULL,"1","2026-01-12 18:27:06","2026-01-12 18:27:06",NULL,NULL
"1381","simca","Simca","https://en.wikipedia.org/wiki/Simca",NULL,NULL,"#FFFFFF",NULL,NULL,"1","2026-01-12 18:27:06","2026-01-12 18:27:06",NULL,NULL
"1382","simtek","Simtek","https://en.wikipedia.org/wiki/Simtek",NULL,NULL,"#FFFFFF",NULL,NULL,"1","2026-01-12 18:27:06","2026-01-12 18:27:06",NULL,NULL
"1383","snowberger","Snowberger","https://en.wikipedia.org/wiki/Russ_Snowberger",NULL,NULL,"#FFFFFF",NULL,NULL,"1","2026-01-12 18:27:06","2026-01-12 18:27:06",NULL,NULL
"1384","spirit","Spirit","https://en.wikipedia.org/wiki/Spirit_Racing",NULL,NULL,"#FFFFFF",NULL,NULL,"1","2026-01-12 18:27:06","2026-01-12 18:27:06",NULL,NULL
"1385","spyker","Spyker","https://en.wikipedia.org/wiki/Spyker_F1",NULL,NULL,"#FFFFFF",NULL,NULL,"1","2026-01-12 18:27:06","2026-01-12 18:27:06",NULL,NULL
"1386","spyker_mf1","Spyker MF1","https://en.wikipedia.org/wiki/Midland_F1_Racing",NULL,NULL,"#FFFFFF",NULL,NULL,"1","2026-01-12 18:27:06","2026-01-12 18:27:06",NULL,NULL
"1387","stebro","Stebro","https://en.wikipedia.org/wiki/Stebro",NULL,NULL,"#FFFFFF",NULL,NULL,"1","2026-01-12 18:27:06","2026-01-12 18:27:06",NULL,NULL
"1388","stevens","Stevens","https://en.wikipedia.org/wiki/Myron_Stevens",NULL,NULL,"#FFFFFF",NULL,NULL,"1","2026-01-12 18:27:06","2026-01-12 18:27:06",NULL,NULL
"1389","stewart","Stewart","https://en.wikipedia.org/wiki/Stewart_Grand_Prix","Stewart Grand Prix",NULL,"#FFFFFF","#006600",NULL,"1","2026-01-12 18:27:06","2026-01-17 12:02:11","#FFFFFF",NULL
"1390","super_aguri","Super Aguri","https://en.wikipedia.org/wiki/Super_Aguri_F1",NULL,NULL,"#FFFFFF",NULL,NULL,"1","2026-01-12 18:27:06","2026-01-12 18:27:06",NULL,NULL
"1391","surtees","Surtees","https://en.wikipedia.org/wiki/Surtees",NULL,NULL,"#FFFFFF",NULL,NULL,"1","2026-01-12 18:27:06","2026-01-12 18:27:06",NULL,NULL
"1392","sutton","Sutton","https://en.wikipedia.org/wiki/Sutton_(constructor)",NULL,NULL,"#FFFFFF",NULL,NULL,"1","2026-01-12 18:27:06","2026-01-12 18:27:06",NULL,NULL
"1393","team_lotus","Team Lotus","https://en.wikipedia.org/wiki/Team_Lotus",NULL,NULL,"#FFFFFF",NULL,NULL,"1","2026-01-12 18:27:06","2026-01-12 18:27:06",NULL,NULL
"1394","tec-mec","Tec-Mec","https://en.wikipedia.org/wiki/Tec-Mec",NULL,NULL,"#FFFFFF",NULL,NULL,"1","2026-01-12 18:27:06","2026-01-12 18:27:06",NULL,NULL
"1395","tecno","Tecno","https://en.wikipedia.org/wiki/Tecno",NULL,NULL,"#FFFFFF",NULL,NULL,"1","2026-01-12 18:27:06","2026-01-12 18:27:06",NULL,NULL
"1396","theodore","Theodore","https://en.wikipedia.org/wiki/Theodore_Racing",NULL,NULL,"#FFFFFF",NULL,NULL,"1","2026-01-12 18:27:06","2026-01-12 18:27:06",NULL,NULL
"1397","token","Token","https://en.wikipedia.org/wiki/Token_Racing",NULL,NULL,"#FFFFFF",NULL,NULL,"1","2026-01-12 18:27:06","2026-01-12 18:27:06",NULL,NULL
"1398","toleman","Toleman","https://en.wikipedia.org/wiki/Toleman",NULL,NULL,"#FFFFFF",NULL,NULL,"1","2026-01-12 18:27:06","2026-01-12 18:27:06",NULL,NULL
"1399","tomaso","De Tomaso","https://en.wikipedia.org/wiki/De_Tomaso",NULL,NULL,"#FFFFFF",NULL,NULL,"1","2026-01-12 18:27:06","2026-01-12 18:27:06",NULL,NULL
"1400","toro_rosso","Toro Rosso","https://en.wikipedia.org/wiki/Scuderia_Toro_Rosso","Scuderia Toro Rosso",NULL,"#FFFFFF","#C8102E",NULL,"1","2026-01-12 18:27:06","2026-01-17 12:02:11","#469BFF",NULL
"1401","toyota","Toyota","https://en.wikipedia.org/wiki/Toyota_Racing","Toyota Racing",NULL,"#FFFFFF","#FFFFFF",NULL,"1","2026-01-12 18:27:06","2026-01-17 12:02:11","#CC0000",NULL
"1402","trevis","Trevis","https://en.wikipedia.org/wiki/Trevis",NULL,NULL,"#FFFFFF",NULL,NULL,"1","2026-01-12 18:27:06","2026-01-12 18:27:06",NULL,NULL
"1403","trojan","Trojan","https://en.wikipedia.org/wiki/Trojan–Tauranac_Racing",NULL,NULL,"#FFFFFF",NULL,NULL,"1","2026-01-12 18:27:06","2026-01-12 18:27:06",NULL,NULL
"1404","turner","Turner","https://en.wikipedia.org/wiki/Turner_(constructor)",NULL,NULL,"#FFFFFF",NULL,NULL,"1","2026-01-12 18:27:06","2026-01-12 18:27:06",NULL,NULL
"1405","tyrrell","Tyrrell","https://en.wikipedia.org/wiki/Tyrrell_Racing","Tyrrell Racing",NULL,"#FFFFFF","#FFFFFF",NULL,"1","2026-01-12 18:27:06","2026-01-17 12:02:11","#0033CC",NULL
"1406","vanwall","Vanwall","https://en.wikipedia.org/wiki/Vanwall",NULL,NULL,"#FFFFFF",NULL,NULL,"1","2026-01-12 18:27:06","2026-01-12 18:27:06",NULL,NULL
"1407","veritas","Veritas","https://en.wikipedia.org/wiki/Veritas_(automobile)",NULL,NULL,"#FFFFFF",NULL,NULL,"1","2026-01-12 18:27:06","2026-01-12 18:27:06",NULL,NULL
"1408","vhristensen","Christensen","https://en.wikipedia.org/wiki/Christensen_(constructor)",NULL,NULL,"#FFFFFF",NULL,NULL,"1","2026-01-12 18:27:06","2026-01-12 18:27:06",NULL,NULL
"1409","virgin","Virgin","https://en.wikipedia.org/wiki/Virgin_Racing",NULL,NULL,"#FFFFFF",NULL,NULL,"1","2026-01-12 18:27:06","2026-01-12 18:27:06",NULL,NULL
"1410","watson","Watson","https://en.wikipedia.org/wiki/A._J._Watson",NULL,NULL,"#FFFFFF",NULL,NULL,"1","2026-01-12 18:27:06","2026-01-12 18:27:06",NULL,NULL
"1411","wetteroth","Wetteroth","https://en.wikipedia.org/wiki/Wetteroth",NULL,NULL,"#FFFFFF",NULL,NULL,"1","2026-01-12 18:27:06","2026-01-12 18:27:06",NULL,NULL
"1412","williams","Williams","https://en.wikipedia.org/wiki/Williams_Racing","Williams Racing","1","#64C4FF","#041E42",NULL,"1","2026-01-12 18:27:06","2026-01-31 18:15:35","#64C4FF","img/helmets/WilliamsV2Fix.png"
"1413","wolf","Wolf","https://en.wikipedia.org/wiki/Walter_Wolf_Racing",NULL,NULL,"#FFFFFF",NULL,NULL,"1","2026-01-12 18:27:06","2026-01-12 18:27:06",NULL,NULL
"1414","zakspeed","Zakspeed","https://en.wikipedia.org/wiki/Zakspeed",NULL,NULL,"#FFFFFF",NULL,NULL,"1","2026-01-12 18:27:06","2026-01-12 18:27:06",NULL,NULL
"id","season_year","round","race_id","constructor_id","position","position_change","points","wins","podiums","poles","fastest_laps","created_at","updated_at"
"142","2015","19",NULL,"mercedes","1","0","703.00","16","0","0","0","2026-01-12 18:55:13","2026-01-12 18:55:13"
"143","2015","19",NULL,"ferrari","2","0","428.00","3","0","0","0","2026-01-12 18:55:13","2026-01-12 18:55:13"
"144","2015","19",NULL,"williams","3","0","257.00","0","0","0","0","2026-01-12 18:55:13","2026-01-12 18:55:13"
"145","2015","19",NULL,"red_bull","4","0","187.00","0","0","0","0","2026-01-12 18:55:13","2026-01-12 18:55:13"
"146","2015","19",NULL,"force_india","5","0","136.00","0","0","0","0","2026-01-12 18:55:13","2026-01-12 18:55:13"
"147","2015","19",NULL,"lotus_f1","6","0","78.00","0","0","0","0","2026-01-12 18:55:13","2026-01-12 18:55:13"
"148","2015","19",NULL,"toro_rosso","7","0","67.00","0","0","0","0","2026-01-12 18:55:13","2026-01-12 18:55:13"
"149","2015","19",NULL,"sauber","8","0","36.00","0","0","0","0","2026-01-12 18:55:13","2026-01-12 18:55:13"
"150","2015","19",NULL,"mclaren","9","0","27.00","0","0","0","0","2026-01-12 18:55:13","2026-01-12 18:55:13"
"151","2015","19",NULL,"manor","10","0","0.00","0","0","0","0","2026-01-12 18:55:13","2026-01-12 18:55:13"
"152","2016","21",NULL,"mercedes","1","0","765.00","19","0","0","0","2026-01-12 18:55:39","2026-01-12 18:55:39"
"153","2016","21",NULL,"red_bull","2","0","468.00","2","0","0","0","2026-01-12 18:55:39","2026-01-12 18:55:39"
"154","2016","21",NULL,"ferrari","3","0","398.00","0","0","0","0","2026-01-12 18:55:39","2026-01-12 18:55:39"
"155","2016","21",NULL,"force_india","4","0","173.00","0","0","0","0","2026-01-12 18:55:39","2026-01-12 18:55:39"
"156","2016","21",NULL,"williams","5","0","138.00","0","0","0","0","2026-01-12 18:55:39","2026-01-12 18:55:39"
"157","2016","21",NULL,"mclaren","6","0","76.00","0","0","0","0","2026-01-12 18:55:39","2026-01-12 18:55:39"
"158","2016","21",NULL,"toro_rosso","7","0","63.00","0","0","0","0","2026-01-12 18:55:39","2026-01-12 18:55:39"
"159","2016","21",NULL,"haas","8","0","29.00","0","0","0","0","2026-01-12 18:55:39","2026-01-12 18:55:39"
"160","2016","21",NULL,"renault","9","0","8.00","0","0","0","0","2026-01-12 18:55:39","2026-01-12 18:55:39"
"161","2016","21",NULL,"sauber","10","0","2.00","0","0","0","0","2026-01-12 18:55:39","2026-01-12 18:55:39"
"162","2016","21",NULL,"manor","11","0","1.00","0","0","0","0","2026-01-12 18:55:39","2026-01-12 18:55:39"
"163","2017","20",NULL,"mercedes","1","0","668.00","12","0","0","0","2026-01-12 18:56:01","2026-01-12 18:56:01"
"164","2017","20",NULL,"ferrari","2","0","522.00","5","0","0","0","2026-01-12 18:56:01","2026-01-12 18:56:01"
"165","2017","20",NULL,"red_bull","3","0","368.00","3","0","0","0","2026-01-12 18:56:01","2026-01-12 18:56:01"
"166","2017","20",NULL,"force_india","4","0","187.00","0","0","0","0","2026-01-12 18:56:01","2026-01-12 18:56:01"
"167","2017","20",NULL,"williams","5","0","83.00","0","0","0","0","2026-01-12 18:56:01","2026-01-12 18:56:01"
"168","2017","20",NULL,"renault","6","0","57.00","0","0","0","0","2026-01-12 18:56:01","2026-01-12 18:56:01"
"169","2017","20",NULL,"toro_rosso","7","0","53.00","0","0","0","0","2026-01-12 18:56:01","2026-01-12 18:56:01"
"170","2017","20",NULL,"haas","8","0","47.00","0","0","0","0","2026-01-12 18:56:01","2026-01-12 18:56:01"
"171","2017","20",NULL,"mclaren","9","0","30.00","0","0","0","0","2026-01-12 18:56:01","2026-01-12 18:56:01"
"172","2017","20",NULL,"sauber","10","0","5.00","0","0","0","0","2026-01-12 18:56:01","2026-01-12 18:56:01"
"173","2018","21",NULL,"mercedes","1","0","655.00","11","0","0","0","2026-01-12 18:56:27","2026-01-12 18:56:27"
"174","2018","21",NULL,"ferrari","2","0","571.00","6","0","0","0","2026-01-12 18:56:27","2026-01-12 18:56:27"
"175","2018","21",NULL,"red_bull","3","0","419.00","4","0","0","0","2026-01-12 18:56:27","2026-01-12 18:56:27"
"176","2018","21",NULL,"renault","4","0","122.00","0","0","0","0","2026-01-12 18:56:27","2026-01-12 18:56:27"
"177","2018","21",NULL,"force_india","5","0","111.00","0","0","0","0","2026-01-12 18:56:27","2026-01-12 18:56:27"
"178","2018","21",NULL,"haas","6","0","93.00","0","0","0","0","2026-01-12 18:56:27","2026-01-12 18:56:27"
"179","2018","21",NULL,"mclaren","7","0","62.00","0","0","0","0","2026-01-12 18:56:27","2026-01-12 18:56:27"
"180","2018","21",NULL,"sauber","8","0","48.00","0","0","0","0","2026-01-12 18:56:27","2026-01-12 18:56:27"
"181","2018","21",NULL,"toro_rosso","9","0","33.00","0","0","0","0","2026-01-12 18:56:27","2026-01-12 18:56:27"
"182","2018","21",NULL,"williams","10","0","7.00","0","0","0","0","2026-01-12 18:56:27","2026-01-12 18:56:27"
"183","2019","21",NULL,"mercedes","1","0","739.00","15","0","0","0","2026-01-12 18:56:54","2026-01-12 18:56:54"
"184","2019","21",NULL,"ferrari","2","0","504.00","3","0","0","0","2026-01-12 18:56:54","2026-01-12 18:56:54"
"185","2019","21",NULL,"red_bull","3","0","417.00","3","0","0","0","2026-01-12 18:56:54","2026-01-12 18:56:54"
"186","2019","21",NULL,"mclaren","4","0","145.00","0","0","0","0","2026-01-12 18:56:54","2026-01-12 18:56:54"
"187","2019","21",NULL,"renault","5","0","91.00","0","0","0","0","2026-01-12 18:56:54","2026-01-12 18:56:54"
"188","2019","21",NULL,"toro_rosso","6","0","85.00","0","0","0","0","2026-01-12 18:56:54","2026-01-12 18:56:54"
"189","2019","21",NULL,"racing_point","7","0","73.00","0","0","0","0","2026-01-12 18:56:54","2026-01-12 18:56:54"
"190","2019","21",NULL,"alfa","8","0","57.00","0","0","0","0","2026-01-12 18:56:54","2026-01-12 18:56:54"
"191","2019","21",NULL,"haas","9","0","28.00","0","0","0","0","2026-01-12 18:56:54","2026-01-12 18:56:54"
"192","2019","21",NULL,"williams","10","0","1.00","0","0","0","0","2026-01-12 18:56:54","2026-01-12 18:56:54"
"193","2020","17",NULL,"mercedes","1","0","573.00","13","0","0","0","2026-01-12 18:57:16","2026-01-12 18:57:16"
"194","2020","17",NULL,"red_bull","2","0","319.00","2","0","0","0","2026-01-12 18:57:16","2026-01-12 18:57:16"
"195","2020","17",NULL,"mclaren","3","0","202.00","0","0","0","0","2026-01-12 18:57:16","2026-01-12 18:57:16"
"196","2020","17",NULL,"racing_point","4","0","195.00","1","0","0","0","2026-01-12 18:57:16","2026-01-12 18:57:16"
"197","2020","17",NULL,"renault","5","0","181.00","0","0","0","0","2026-01-12 18:57:16","2026-01-12 18:57:16"
"198","2020","17",NULL,"ferrari","6","0","131.00","0","0","0","0","2026-01-12 18:57:16","2026-01-12 18:57:16"
"199","2020","17",NULL,"alphatauri","7","0","107.00","1","0","0","0","2026-01-12 18:57:16","2026-01-12 18:57:16"
"200","2020","17",NULL,"alfa","8","0","8.00","0","0","0","0","2026-01-12 18:57:16","2026-01-12 18:57:16"
"201","2020","17",NULL,"haas","9","0","3.00","0","0","0","0","2026-01-12 18:57:16","2026-01-12 18:57:16"
"202","2020","17",NULL,"williams","10","0","0.00","0","0","0","0","2026-01-12 18:57:16","2026-01-12 18:57:16"
"203","2021","22",NULL,"mercedes","1","0","613.50","9","0","0","0","2026-01-12 18:57:42","2026-01-12 18:57:42"
"204","2021","22",NULL,"red_bull","2","0","585.50","11","0","0","0","2026-01-12 18:57:42","2026-01-12 18:57:42"
"205","2021","22",NULL,"ferrari","3","0","323.50","0","0","0","0","2026-01-12 18:57:42","2026-01-12 18:57:42"
"206","2021","22",NULL,"mclaren","4","0","275.00","1","0","0","0","2026-01-12 18:57:42","2026-01-12 18:57:42"
"207","2021","22",NULL,"alpine","5","0","155.00","1","0","0","0","2026-01-12 18:57:42","2026-01-12 18:57:42"
"208","2021","22",NULL,"alphatauri","6","0","142.00","0","0","0","0","2026-01-12 18:57:42","2026-01-12 18:57:42"
"209","2021","22",NULL,"aston_martin","7","0","77.00","0","0","0","0","2026-01-12 18:57:42","2026-01-12 18:57:42"
"210","2021","22",NULL,"williams","8","0","23.00","0","0","0","0","2026-01-12 18:57:42","2026-01-12 18:57:42"
"211","2021","22",NULL,"alfa","9","0","13.00","0","0","0","0","2026-01-12 18:57:42","2026-01-12 18:57:42"
"212","2021","22",NULL,"haas","10","0","0.00","0","0","0","0","2026-01-12 18:57:42","2026-01-12 18:57:42"
"213","2022","22",NULL,"red_bull","1","0","759.00","17","0","0","0","2026-01-12 18:58:08","2026-01-12 18:58:08"
"214","2022","22",NULL,"ferrari","2","0","554.00","4","0","0","0","2026-01-12 18:58:08","2026-01-12 18:58:08"
"215","2022","22",NULL,"mercedes","3","0","515.00","1","0","0","0","2026-01-12 18:58:08","2026-01-12 18:58:08"
"216","2022","22",NULL,"alpine","4","0","173.00","0","0","0","0","2026-01-12 18:58:08","2026-01-12 18:58:08"
"217","2022","22",NULL,"mclaren","5","0","159.00","0","0","0","0","2026-01-12 18:58:08","2026-01-12 18:58:08"
"218","2022","22",NULL,"alfa","6","0","55.00","0","0","0","0","2026-01-12 18:58:08","2026-01-12 18:58:08"
"219","2022","22",NULL,"aston_martin","7","0","55.00","0","0","0","0","2026-01-12 18:58:08","2026-01-12 18:58:08"
"220","2022","22",NULL,"haas","8","0","37.00","0","0","0","0","2026-01-12 18:58:08","2026-01-12 18:58:08"
"221","2022","22",NULL,"alphatauri","9","0","35.00","0","0","0","0","2026-01-12 18:58:08","2026-01-12 18:58:08"
"222","2022","22",NULL,"williams","10","0","8.00","0","0","0","0","2026-01-12 18:58:08","2026-01-12 18:58:08"
"223","2023","22",NULL,"red_bull","1","0","860.00","21","0","0","0","2026-01-12 18:58:37","2026-01-12 18:58:37"
"224","2023","22",NULL,"mercedes","2","0","409.00","0","0","0","0","2026-01-12 18:58:37","2026-01-12 18:58:37"
"225","2023","22",NULL,"ferrari","3","0","406.00","1","0","0","0","2026-01-12 18:58:37","2026-01-12 18:58:37"
"226","2023","22",NULL,"mclaren","4","0","302.00","0","0","0","0","2026-01-12 18:58:37","2026-01-12 18:58:37"
"227","2023","22",NULL,"aston_martin","5","0","280.00","0","0","0","0","2026-01-12 18:58:37","2026-01-12 18:58:37"
"228","2023","22",NULL,"alpine","6","0","120.00","0","0","0","0","2026-01-12 18:58:37","2026-01-12 18:58:37"
"229","2023","22",NULL,"williams","7","0","28.00","0","0","0","0","2026-01-12 18:58:37","2026-01-12 18:58:37"
"230","2023","22",NULL,"alphatauri","8","0","25.00","0","0","0","0","2026-01-12 18:58:37","2026-01-12 18:58:37"
"231","2023","22",NULL,"alfa","9","0","16.00","0","0","0","0","2026-01-12 18:58:37","2026-01-12 18:58:37"
"232","2023","22",NULL,"haas","10","0","12.00","0","0","0","0","2026-01-12 18:58:37","2026-01-12 18:58:37"
"233","2024","24",NULL,"mclaren","1","0","666.00","6","0","0","0","2026-01-12 18:59:05","2026-01-12 18:59:05"
"234","2024","24",NULL,"ferrari","2","0","652.00","5","0","0","0","2026-01-12 18:59:05","2026-01-12 18:59:05"
"235","2024","24",NULL,"red_bull","3","0","589.00","9","0","0","0","2026-01-12 18:59:05","2026-01-12 18:59:05"
"236","2024","24",NULL,"mercedes","4","0","468.00","4","0","0","0","2026-01-12 18:59:05","2026-01-12 18:59:05"
"237","2024","24",NULL,"aston_martin","5","0","94.00","0","0","0","0","2026-01-12 18:59:05","2026-01-12 18:59:05"
"238","2024","24",NULL,"alpine","6","0","65.00","0","0","0","0","2026-01-12 18:59:05","2026-01-12 18:59:05"
"239","2024","24",NULL,"haas","7","0","58.00","0","0","0","0","2026-01-12 18:59:05","2026-01-12 18:59:05"
"240","2024","24",NULL,"rb","8","0","46.00","0","0","0","0","2026-01-12 18:59:05","2026-01-12 18:59:05"
"241","2024","24",NULL,"williams","9","0","17.00","0","0","0","0","2026-01-12 18:59:05","2026-01-12 18:59:05"
"242","2024","24",NULL,"sauber","10","0","4.00","0","0","0","0","2026-01-12 18:59:05","2026-01-12 18:59:05"
"243","2025","24",NULL,"mclaren","1","0","833.00","14","0","0","0","2026-01-12 18:59:33","2026-01-12 18:59:33"
"244","2025","24",NULL,"mercedes","2","0","469.00","2","0","0","0","2026-01-12 18:59:33","2026-01-12 18:59:33"
"245","2025","24",NULL,"red_bull","3","0","451.00","8","0","0","0","2026-01-12 18:59:33","2026-01-12 18:59:33"
"246","2025","24",NULL,"ferrari","4","0","398.00","0","0","0","0","2026-01-12 18:59:33","2026-01-12 18:59:33"
"247","2025","24",NULL,"williams","5","0","137.00","0","0","0","0","2026-01-12 18:59:33","2026-01-12 18:59:33"
"248","2025","24",NULL,"rb","6","0","92.00","0","0","0","0","2026-01-12 18:59:33","2026-01-12 18:59:33"
"249","2025","24",NULL,"aston_martin","7","0","89.00","0","0","0","0","2026-01-12 18:59:33","2026-01-12 18:59:33"
"250","2025","24",NULL,"haas","8","0","79.00","0","0","0","0","2026-01-12 18:59:33","2026-01-12 18:59:33"
"251","2025","24",NULL,"sauber","9","0","70.00","0","0","0","0","2026-01-12 18:59:33","2026-01-12 18:59:33"
"252","2025","24",NULL,"alpine","10","0","22.00","0","0","0","0","2026-01-12 18:59:33","2026-01-12 18:59:33"
"253","2020",NULL,"374","mercedes","1","0","37.00","1","0","0","0","2026-01-22 01:38:23","2026-01-22 01:38:23"
"254","2020",NULL,"374","mclaren","2","0","26.00","0","0","0","0","2026-01-22 01:38:23","2026-01-22 01:38:23"
"255","2020",NULL,"374","ferrari","3","0","19.00","0","0","0","0","2026-01-22 01:38:23","2026-01-22 01:38:23"
"256","2020",NULL,"374","alphatauri","4","0","6.00","0","0","0","0","2026-01-22 01:38:23","2026-01-22 01:38:23"
"257","2020",NULL,"374","renault","5","0","4.00","0","0","0","0","2026-01-22 01:38:23","2026-01-22 01:38:23"
"258","2020",NULL,"374","alfa","6","0","2.00","0","0","0","0","2026-01-22 01:38:23","2026-01-22 01:38:23"
"259","2020",NULL,"374","racing_point","7","0","0.00","0","0","0","0","2026-01-22 01:38:23","2026-01-22 01:38:23"
"260","2020",NULL,"374","williams","8","0","0.00","0","0","0","0","2026-01-22 01:38:23","2026-01-22 01:38:23"
"261","2020",NULL,"374","red_bull","9","0","0.00","0","0","0","0","2026-01-22 01:38:23","2026-01-22 01:38:23"
"262","2020",NULL,"374","haas","0","0","0.00","0","0","0","0","2026-01-22 01:38:23","2026-01-22 01:38:23"
"263","2020",NULL,"375","mercedes","1","0","80.00","2","0","0","0","2026-01-22 01:38:25","2026-01-22 01:38:25"
"264","2020",NULL,"375","mclaren","2","0","39.00","0","0","0","0","2026-01-22 01:38:25","2026-01-22 01:38:25"
"265","2020",NULL,"375","red_bull","3","6","27.00","0","0","0","0","2026-01-22 01:38:25","2026-01-22 01:38:56"
"266","2020",NULL,"375","ferrari","4","-1","19.00","0","0","0","0","2026-01-22 01:38:25","2026-01-22 01:38:56"
"267","2020",NULL,"375","renault","5","0","8.00","0","0","0","0","2026-01-22 01:38:25","2026-01-22 01:38:25"
"268","2020",NULL,"375","racing_point","6","1","7.00","0","0","0","0","2026-01-22 01:38:25","2026-01-22 01:38:56"
"269","2020",NULL,"375","alphatauri","7","-3","7.00","0","0","0","0","2026-01-22 01:38:25","2026-01-22 01:38:56"
"270","2020",NULL,"375","alfa","8","-2","2.00","0","0","0","0","2026-01-22 01:38:25","2026-01-22 01:38:56"
"271","2020",NULL,"375","williams","9","-1","0.00","0","0","0","0","2026-01-22 01:38:25","2026-01-22 01:38:56"
"272","2020",NULL,"375","haas","10","-10","0.00","0","0","0","0","2026-01-22 01:38:25","2026-01-22 01:38:56"
"273","2020",NULL,"376","mercedes","1","0","121.00","3","0","0","0","2026-01-22 01:38:27","2026-01-22 01:38:27"
"274","2020",NULL,"376","red_bull","2","1","55.00","0","0","0","0","2026-01-22 01:38:27","2026-01-22 01:38:56"
"275","2020",NULL,"376","mclaren","3","-1","41.00","0","0","0","0","2026-01-22 01:38:27","2026-01-22 01:38:56"
"276","2020",NULL,"376","ferrari","4","0","27.00","0","0","0","0","2026-01-22 01:38:27","2026-01-22 01:38:27"
"277","2020",NULL,"376","racing_point","5","1","25.00","0","0","0","0","2026-01-22 01:38:27","2026-01-22 01:38:56"
"278","2020",NULL,"376","renault","6","-1","12.00","0","0","0","0","2026-01-22 01:38:27","2026-01-22 01:38:56"
"279","2020",NULL,"376","alphatauri","7","0","7.00","0","0","0","0","2026-01-22 01:38:27","2026-01-22 01:38:27"
"280","2020",NULL,"376","alfa","8","0","2.00","0","0","0","0","2026-01-22 01:38:27","2026-01-22 01:38:27"
"281","2020",NULL,"376","haas","9","1","1.00","0","0","0","0","2026-01-22 01:38:27","2026-01-22 01:38:56"
"282","2020",NULL,"376","williams","10","-1","0.00","0","0","0","0","2026-01-22 01:38:27","2026-01-22 01:38:56"
"283","2020",NULL,"377","mercedes","1","0","146.00","4","0","0","0","2026-01-22 01:38:29","2026-01-22 01:38:29"
"284","2020",NULL,"377","red_bull","2","0","78.00","0","0","0","0","2026-01-22 01:38:29","2026-01-22 01:38:29"
"285","2020",NULL,"377","mclaren","3","0","51.00","0","0","0","0","2026-01-22 01:38:29","2026-01-22 01:38:29"
"286","2020",NULL,"377","ferrari","4","0","43.00","0","0","0","0","2026-01-22 01:38:29","2026-01-22 01:38:29"
"287","2020",NULL,"377","renault","5","1","32.00","0","0","0","0","2026-01-22 01:38:29","2026-01-22 01:38:56"
"288","2020",NULL,"377","racing_point","6","-1","27.00","0","0","0","0","2026-01-22 01:38:29","2026-01-22 01:38:56"
"289","2020",NULL,"377","alphatauri","7","0","13.00","0","0","0","0","2026-01-22 01:38:29","2026-01-22 01:38:29"
"290","2020",NULL,"377","alfa","8","0","2.00","0","0","0","0","2026-01-22 01:38:29","2026-01-22 01:38:29"
"291","2020",NULL,"377","haas","9","0","1.00","0","0","0","0","2026-01-22 01:38:29","2026-01-22 01:38:29"
"292","2020",NULL,"377","williams","10","0","0.00","0","0","0","0","2026-01-22 01:38:29","2026-01-22 01:38:29"
"293","2020",NULL,"378","mercedes","1","0","180.00","4","0","0","0","2026-01-22 01:38:32","2026-01-22 01:38:32"
"294","2020",NULL,"378","red_bull","2","0","113.00","1","0","0","0","2026-01-22 01:38:32","2026-01-22 01:38:32"
"295","2020",NULL,"378","ferrari","3","1","55.00","0","0","0","0","2026-01-22 01:38:32","2026-01-22 01:38:56"
"296","2020",NULL,"378","mclaren","4","-1","53.00","0","0","0","0","2026-01-22 01:38:32","2026-01-22 01:38:56"
"297","2020",NULL,"378","racing_point","5","1","41.00","0","0","0","0","2026-01-22 01:38:32","2026-01-22 01:38:56"
"298","2020",NULL,"378","renault","6","-1","36.00","0","0","0","0","2026-01-22 01:38:32","2026-01-22 01:38:56"
"299","2020",NULL,"378","alphatauri","7","0","14.00","0","0","0","0","2026-01-22 01:38:32","2026-01-22 01:38:32"
"300","2020",NULL,"378","alfa","8","0","2.00","0","0","0","0","2026-01-22 01:38:32","2026-01-22 01:38:32"
"301","2020",NULL,"378","haas","9","0","1.00","0","0","0","0","2026-01-22 01:38:32","2026-01-22 01:38:32"
"302","2020",NULL,"378","williams","10","0","0.00","0","0","0","0","2026-01-22 01:38:32","2026-01-22 01:38:32"
"303","2020",NULL,"379","mercedes","1","0","221.00","5","0","0","0","2026-01-22 01:38:34","2026-01-22 01:38:34"
"304","2020",NULL,"379","red_bull","2","0","135.00","1","0","0","0","2026-01-22 01:38:34","2026-01-22 01:38:34"
"305","2020",NULL,"379","racing_point","3","2","63.00","0","0","0","0","2026-01-22 01:38:34","2026-01-22 01:38:56"
"306","2020",NULL,"379","mclaren","4","0","62.00","0","0","0","0","2026-01-22 01:38:34","2026-01-22 01:38:34"
"307","2020",NULL,"379","ferrari","5","-2","61.00","0","0","0","0","2026-01-22 01:38:34","2026-01-22 01:38:56"
"308","2020",NULL,"379","renault","6","0","36.00","0","0","0","0","2026-01-22 01:38:34","2026-01-22 01:38:34"
"309","2020",NULL,"379","alphatauri","7","0","16.00","0","0","0","0","2026-01-22 01:38:34","2026-01-22 01:38:34"
"310","2020",NULL,"379","alfa","8","0","2.00","0","0","0","0","2026-01-22 01:38:34","2026-01-22 01:38:34"
"311","2020",NULL,"379","haas","9","0","1.00","0","0","0","0","2026-01-22 01:38:34","2026-01-22 01:38:34"
"312","2020",NULL,"379","williams","10","0","0.00","0","0","0","0","2026-01-22 01:38:34","2026-01-22 01:38:34"
"313","2020",NULL,"380","mercedes","1","0","264.00","6","0","0","0","2026-01-22 01:38:36","2026-01-22 01:38:36"
"314","2020",NULL,"380","red_bull","2","0","158.00","1","0","0","0","2026-01-22 01:38:36","2026-01-22 01:38:36"
"315","2020",NULL,"380","mclaren","3","1","68.00","0","0","0","0","2026-01-22 01:38:36","2026-01-22 01:38:56"
"316","2020",NULL,"380","racing_point","4","-1","66.00","0","0","0","0","2026-01-22 01:38:36","2026-01-22 01:38:56"
"317","2020",NULL,"380","ferrari","5","0","61.00","0","0","0","0","2026-01-22 01:38:36","2026-01-22 01:38:36"
"318","2020",NULL,"380","renault","6","0","59.00","0","0","0","0","2026-01-22 01:38:36","2026-01-22 01:38:36"
"319","2020",NULL,"380","alphatauri","7","0","20.00","0","0","0","0","2026-01-22 01:38:36","2026-01-22 01:38:36"
"320","2020",NULL,"380","alfa","8","0","2.00","0","0","0","0","2026-01-22 01:38:36","2026-01-22 01:38:36"
"321","2020",NULL,"380","haas","9","0","1.00","0","0","0","0","2026-01-22 01:38:36","2026-01-22 01:38:36"
"322","2020",NULL,"380","williams","10","0","0.00","0","0","0","0","2026-01-22 01:38:36","2026-01-22 01:38:36"
"323","2020",NULL,"381","mercedes","1","0","281.00","6","0","0","0","2026-01-22 01:38:38","2026-01-22 01:38:38"
"324","2020",NULL,"381","red_bull","2","0","158.00","1","0","0","0","2026-01-22 01:38:38","2026-01-22 01:38:38"
"325","2020",NULL,"381","mclaren","3","0","98.00","0","0","0","0","2026-01-22 01:38:38","2026-01-22 01:38:38"
"326","2020",NULL,"381","racing_point","4","0","82.00","0","0","0","0","2026-01-22 01:38:38","2026-01-22 01:38:38"
"327","2020",NULL,"381","renault","5","1","71.00","0","0","0","0","2026-01-22 01:38:38","2026-01-22 01:38:56"
"328","2020",NULL,"381","ferrari","6","-1","61.00","0","0","0","0","2026-01-22 01:38:38","2026-01-22 01:38:56"
"329","2020",NULL,"381","alphatauri","7","0","47.00","1","0","0","0","2026-01-22 01:38:38","2026-01-22 01:38:38"
"330","2020",NULL,"381","alfa","8","0","2.00","0","0","0","0","2026-01-22 01:38:38","2026-01-22 01:38:38"
"331","2020",NULL,"381","haas","9","0","1.00","0","0","0","0","2026-01-22 01:38:38","2026-01-22 01:38:38"
"332","2020",NULL,"381","williams","10","0","0.00","0","0","0","0","2026-01-22 01:38:38","2026-01-22 01:38:38"
"333","2020",NULL,"382","mercedes","1","0","325.00","7","0","0","0","2026-01-22 01:38:40","2026-01-22 01:38:40"
"334","2020",NULL,"382","red_bull","2","0","173.00","1","0","0","0","2026-01-22 01:38:40","2026-01-22 01:38:40"
"335","2020",NULL,"382","mclaren","3","0","106.00","0","0","0","0","2026-01-22 01:38:40","2026-01-22 01:38:40"
"336","2020",NULL,"382","racing_point","4","0","92.00","0","0","0","0","2026-01-22 01:38:40","2026-01-22 01:38:40"
"337","2020",NULL,"382","renault","5","0","83.00","0","0","0","0","2026-01-22 01:38:40","2026-01-22 01:38:40"
"338","2020",NULL,"382","ferrari","6","0","66.00","0","0","0","0","2026-01-22 01:38:40","2026-01-22 01:38:40"
"339","2020",NULL,"382","alphatauri","7","0","53.00","1","0","0","0","2026-01-22 01:38:40","2026-01-22 01:38:40"
"340","2020",NULL,"382","alfa","8","0","4.00","0","0","0","0","2026-01-22 01:38:40","2026-01-22 01:38:40"
"341","2020",NULL,"382","haas","9","0","1.00","0","0","0","0","2026-01-22 01:38:40","2026-01-22 01:38:40"
"342","2020",NULL,"382","williams","10","0","0.00","0","0","0","0","2026-01-22 01:38:40","2026-01-22 01:38:40"
"343","2020",NULL,"383","mercedes","1","0","366.00","8","0","0","0","2026-01-22 01:38:42","2026-01-22 01:38:42"
"344","2020",NULL,"383","red_bull","2","0","192.00","1","0","0","0","2026-01-22 01:38:42","2026-01-22 01:38:42"
"345","2020",NULL,"383","mclaren","3","0","106.00","0","0","0","0","2026-01-22 01:38:42","2026-01-22 01:38:42"
"346","2020",NULL,"383","racing_point","4","0","104.00","0","0","0","0","2026-01-22 01:38:42","2026-01-22 01:38:42"
"347","2020",NULL,"383","renault","5","0","99.00","0","0","0","0","2026-01-22 01:38:42","2026-01-22 01:38:42"
"348","2020",NULL,"383","ferrari","6","0","74.00","0","0","0","0","2026-01-22 01:38:42","2026-01-22 01:38:42"
"349","2020",NULL,"383","alphatauri","7","0","59.00","1","0","0","0","2026-01-22 01:38:42","2026-01-22 01:38:42"
"350","2020",NULL,"383","alfa","8","0","4.00","0","0","0","0","2026-01-22 01:38:42","2026-01-22 01:38:42"
"351","2020",NULL,"383","haas","9","0","1.00","0","0","0","0","2026-01-22 01:38:42","2026-01-22 01:38:42"
"352","2020",NULL,"383","williams","10","0","0.00","0","0","0","0","2026-01-22 01:38:42","2026-01-22 01:38:42"
"353","2020",NULL,"384","mercedes","1","0","391.00","9","0","0","0","2026-01-22 01:38:44","2026-01-22 01:38:44"
"354","2020",NULL,"384","red_bull","2","0","211.00","1","0","0","0","2026-01-22 01:38:44","2026-01-22 01:38:44"
"355","2020",NULL,"384","racing_point","3","1","120.00","0","0","0","0","2026-01-22 01:38:44","2026-01-22 01:38:56"
"356","2020",NULL,"384","mclaren","4","-1","116.00","0","0","0","0","2026-01-22 01:38:44","2026-01-22 01:38:56"
"357","2020",NULL,"384","renault","5","0","114.00","0","0","0","0","2026-01-22 01:38:44","2026-01-22 01:38:44"
"358","2020",NULL,"384","ferrari","6","0","80.00","0","0","0","0","2026-01-22 01:38:44","2026-01-22 01:38:44"
"359","2020",NULL,"384","alphatauri","7","0","67.00","1","0","0","0","2026-01-22 01:38:44","2026-01-22 01:38:44"
"360","2020",NULL,"384","alfa","8","0","5.00","0","0","0","0","2026-01-22 01:38:44","2026-01-22 01:38:44"
"361","2020",NULL,"384","haas","9","0","3.00","0","0","0","0","2026-01-22 01:38:44","2026-01-22 01:38:44"
"362","2020",NULL,"384","williams","10","0","0.00","0","0","0","0","2026-01-22 01:38:44","2026-01-22 01:38:44"
"363","2020",NULL,"385","mercedes","1","0","435.00","10","0","0","0","2026-01-22 01:38:46","2026-01-22 01:38:46"
"364","2020",NULL,"385","red_bull","2","0","226.00","1","0","0","0","2026-01-22 01:38:46","2026-01-22 01:38:46"
"365","2020",NULL,"385","racing_point","3","0","126.00","0","0","0","0","2026-01-22 01:38:46","2026-01-22 01:38:46"
"366","2020",NULL,"385","mclaren","4","0","124.00","0","0","0","0","2026-01-22 01:38:46","2026-01-22 01:38:46"
"367","2020",NULL,"385","renault","5","0","120.00","0","0","0","0","2026-01-22 01:38:46","2026-01-22 01:38:46"
"368","2020",NULL,"385","ferrari","6","0","93.00","0","0","0","0","2026-01-22 01:38:46","2026-01-22 01:38:46"
"369","2020",NULL,"385","alphatauri","7","0","77.00","1","0","0","0","2026-01-22 01:38:46","2026-01-22 01:38:46"
"370","2020",NULL,"385","alfa","8","0","5.00","0","0","0","0","2026-01-22 01:38:46","2026-01-22 01:38:46"
"371","2020",NULL,"385","haas","9","0","3.00","0","0","0","0","2026-01-22 01:38:46","2026-01-22 01:38:46"
"372","2020",NULL,"385","williams","10","0","0.00","0","0","0","0","2026-01-22 01:38:46","2026-01-22 01:38:46"
"373","2020",NULL,"386","mercedes","1","0","479.00","11","0","0","0","2026-01-22 01:38:48","2026-01-22 01:38:48"
"374","2020",NULL,"386","red_bull","2","0","226.00","1","0","0","0","2026-01-22 01:38:48","2026-01-22 01:38:48"
"375","2020",NULL,"386","renault","3","2","135.00","0","0","0","0","2026-01-22 01:38:48","2026-01-22 01:38:56"
"376","2020",NULL,"386","mclaren","4","0","134.00","0","0","0","0","2026-01-22 01:38:48","2026-01-22 01:38:48"
"377","2020",NULL,"386","racing_point","5","-2","134.00","0","0","0","0","2026-01-22 01:38:48","2026-01-22 01:38:56"
"378","2020",NULL,"386","ferrari","6","0","103.00","0","0","0","0","2026-01-22 01:38:48","2026-01-22 01:38:48"
"379","2020",NULL,"386","alphatauri","7","0","89.00","1","0","0","0","2026-01-22 01:38:48","2026-01-22 01:38:48"
"380","2020",NULL,"386","alfa","8","0","8.00","0","0","0","0","2026-01-22 01:38:48","2026-01-22 01:38:48"
"381","2020",NULL,"386","haas","9","0","3.00","0","0","0","0","2026-01-22 01:38:48","2026-01-22 01:38:48"
"382","2020",NULL,"386","williams","10","0","0.00","0","0","0","0","2026-01-22 01:38:48","2026-01-22 01:38:48"
"383","2020",NULL,"387","mercedes","1","0","504.00","12","0","0","0","2026-01-22 01:38:50","2026-01-22 01:38:50"
"384","2020",NULL,"387","red_bull","2","0","240.00","1","0","0","0","2026-01-22 01:38:50","2026-01-22 01:38:50"
"385","2020",NULL,"387","racing_point","3","2","154.00","0","0","0","0","2026-01-22 01:38:50","2026-01-22 01:38:56"
"386","2020",NULL,"387","mclaren","4","0","149.00","0","0","0","0","2026-01-22 01:38:50","2026-01-22 01:38:50"
"387","2020",NULL,"387","renault","5","-2","136.00","0","0","0","0","2026-01-22 01:38:50","2026-01-22 01:38:56"
"388","2020",NULL,"387","ferrari","6","0","130.00","0","0","0","0","2026-01-22 01:38:50","2026-01-22 01:38:50"
"389","2020",NULL,"387","alphatauri","7","0","89.00","1","0","0","0","2026-01-22 01:38:50","2026-01-22 01:38:50"
"390","2020",NULL,"387","alfa","8","0","8.00","0","0","0","0","2026-01-22 01:38:50","2026-01-22 01:38:50"
"391","2020",NULL,"387","haas","9","0","3.00","0","0","0","0","2026-01-22 01:38:50","2026-01-22 01:38:50"
"392","2020",NULL,"387","williams","10","0","0.00","0","0","0","0","2026-01-22 01:38:50","2026-01-22 01:38:50"
"393","2020",NULL,"388","mercedes","1","0","533.00","13","0","0","0","2026-01-22 01:38:52","2026-01-22 01:38:52"
"394","2020",NULL,"388","red_bull","2","0","274.00","1","0","0","0","2026-01-22 01:38:52","2026-01-22 01:38:52"
"395","2020",NULL,"388","mclaren","3","1","171.00","0","0","0","0","2026-01-22 01:38:52","2026-01-22 01:38:56"
"396","2020",NULL,"388","racing_point","4","-1","154.00","0","0","0","0","2026-01-22 01:38:52","2026-01-22 01:38:56"
"397","2020",NULL,"388","renault","5","0","144.00","0","0","0","0","2026-01-22 01:38:52","2026-01-22 01:38:52"
"398","2020",NULL,"388","ferrari","6","0","131.00","0","0","0","0","2026-01-22 01:38:52","2026-01-22 01:38:52"
"399","2020",NULL,"388","alphatauri","7","0","97.00","1","0","0","0","2026-01-22 01:38:52","2026-01-22 01:38:52"
"400","2020",NULL,"388","alfa","8","0","8.00","0","0","0","0","2026-01-22 01:38:52","2026-01-22 01:38:52"
"401","2020",NULL,"388","haas","9","0","3.00","0","0","0","0","2026-01-22 01:38:52","2026-01-22 01:38:52"
"402","2020",NULL,"388","williams","10","0","0.00","0","0","0","0","2026-01-22 01:38:52","2026-01-22 01:38:52"
"403","2020",NULL,"389","mercedes","1","0","540.00","13","0","0","0","2026-01-22 01:38:54","2026-01-22 01:38:54"
"404","2020",NULL,"389","red_bull","2","0","282.00","1","0","0","0","2026-01-22 01:38:54","2026-01-22 01:38:54"
"405","2020",NULL,"389","racing_point","3","1","194.00","1","0","0","0","2026-01-22 01:38:54","2026-01-22 01:38:56"
"406","2020",NULL,"389","mclaren","4","-1","184.00","0","0","0","0","2026-01-22 01:38:54","2026-01-22 01:38:56"
"407","2020",NULL,"389","renault","5","0","172.00","0","0","0","0","2026-01-22 01:38:54","2026-01-22 01:38:54"
"408","2020",NULL,"389","ferrari","6","0","131.00","0","0","0","0","2026-01-22 01:38:54","2026-01-22 01:38:54"
"409","2020",NULL,"389","alphatauri","7","0","103.00","1","0","0","0","2026-01-22 01:38:54","2026-01-22 01:38:54"
"410","2020",NULL,"389","alfa","8","0","8.00","0","0","0","0","2026-01-22 01:38:54","2026-01-22 01:38:54"
"411","2020",NULL,"389","haas","9","0","3.00","0","0","0","0","2026-01-22 01:38:54","2026-01-22 01:38:54"
"412","2020",NULL,"389","williams","10","0","0.00","0","0","0","0","2026-01-22 01:38:54","2026-01-22 01:38:54"
"413","2020",NULL,"390","mercedes","1","0","573.00","13","0","0","0","2026-01-22 01:38:56","2026-01-22 01:38:56"
"414","2020",NULL,"390","red_bull","2","0","319.00","2","0","0","0","2026-01-22 01:38:56","2026-01-22 01:38:56"
"415","2020",NULL,"390","mclaren","3","1","202.00","0","0","0","0","2026-01-22 01:38:56","2026-01-22 01:38:56"
"416","2020",NULL,"390","racing_point","4","-1","195.00","1","0","0","0","2026-01-22 01:38:56","2026-01-22 01:38:56"
"417","2020",NULL,"390","renault","5","0","181.00","0","0","0","0","2026-01-22 01:38:56","2026-01-22 01:38:56"
"418","2020",NULL,"390","ferrari","6","0","131.00","0","0","0","0","2026-01-22 01:38:56","2026-01-22 01:38:56"
"419","2020",NULL,"390","alphatauri","7","0","107.00","1","0","0","0","2026-01-22 01:38:56","2026-01-22 01:38:56"
"420","2020",NULL,"390","alfa","8","0","8.00","0","0","0","0","2026-01-22 01:38:56","2026-01-22 01:38:56"
"421","2020",NULL,"390","haas","9","0","3.00","0","0","0","0","2026-01-22 01:38:56","2026-01-22 01:38:56"
"422","2020",NULL,"390","williams","10","0","0.00","0","0","0","0","2026-01-22 01:38:56","2026-01-22 01:38:56"
"423","2021",NULL,"391","mercedes","1","0","41.00","1","0","0","0","2026-01-22 01:38:59","2026-01-22 01:38:59"
"424","2021",NULL,"391","red_bull","2","0","28.00","0","0","0","0","2026-01-22 01:38:59","2026-01-22 01:38:59"
"425","2021",NULL,"391","mclaren","3","0","18.00","0","0","0","0","2026-01-22 01:38:59","2026-01-22 01:38:59"
"426","2021",NULL,"391","ferrari","4","0","12.00","0","0","0","0","2026-01-22 01:38:59","2026-01-22 01:38:59"
"427","2021",NULL,"391","alphatauri","5","0","2.00","0","0","0","0","2026-01-22 01:38:59","2026-01-22 01:38:59"
"428","2021",NULL,"391","aston_martin","6","0","1.00","0","0","0","0","2026-01-22 01:38:59","2026-01-22 01:38:59"
"429","2021",NULL,"391","alfa","7","0","0.00","0","0","0","0","2026-01-22 01:38:59","2026-01-22 01:38:59"
"430","2021",NULL,"391","alpine","8","0","0.00","0","0","0","0","2026-01-22 01:38:59","2026-01-22 01:38:59"
"431","2021",NULL,"391","williams","9","0","0.00","0","0","0","0","2026-01-22 01:38:59","2026-01-22 01:38:59"
"432","2021",NULL,"391","haas","10","0","0.00","0","0","0","0","2026-01-22 01:38:59","2026-01-22 01:38:59"
"433","2021",NULL,"392","mercedes","1","0","60.00","1","0","0","0","2026-01-22 01:39:01","2026-01-22 01:39:01"
"434","2021",NULL,"392","red_bull","2","0","53.00","1","0","0","0","2026-01-22 01:39:01","2026-01-22 01:39:01"
"435","2021",NULL,"392","mclaren","3","0","41.00","0","0","0","0","2026-01-22 01:39:01","2026-01-22 01:39:01"
"436","2021",NULL,"392","ferrari","4","0","34.00","0","0","0","0","2026-01-22 01:39:01","2026-01-22 01:39:01"
"437","2021",NULL,"392","alphatauri","5","0","8.00","0","0","0","0","2026-01-22 01:39:01","2026-01-22 01:39:01"
"438","2021",NULL,"392","aston_martin","6","0","5.00","0","0","0","0","2026-01-22 01:39:01","2026-01-22 01:39:01"
"439","2021",NULL,"392","alpine","7","1","3.00","0","0","0","0","2026-01-22 01:39:01","2026-01-22 01:39:41"
"440","2021",NULL,"392","alfa","8","-1","0.00","0","0","0","0","2026-01-22 01:39:01","2026-01-22 01:39:41"
"441","2021",NULL,"392","williams","9","0","0.00","0","0","0","0","2026-01-22 01:39:01","2026-01-22 01:39:01"
"442","2021",NULL,"392","haas","10","0","0.00","0","0","0","0","2026-01-22 01:39:01","2026-01-22 01:39:01"
"443","2021",NULL,"393","mercedes","1","0","101.00","2","0","0","0","2026-01-22 01:39:03","2026-01-22 01:39:03"
"444","2021",NULL,"393","red_bull","2","0","83.00","1","0","0","0","2026-01-22 01:39:03","2026-01-22 01:39:03"
"445","2021",NULL,"393","mclaren","3","0","53.00","0","0","0","0","2026-01-22 01:39:03","2026-01-22 01:39:03"
"446","2021",NULL,"393","ferrari","4","0","42.00","0","0","0","0","2026-01-22 01:39:03","2026-01-22 01:39:03"
"447","2021",NULL,"393","alpine","5","2","13.00","0","0","0","0","2026-01-22 01:39:03","2026-01-22 01:39:41"
"448","2021",NULL,"393","alphatauri","6","-1","9.00","0","0","0","0","2026-01-22 01:39:03","2026-01-22 01:39:41"
"449","2021",NULL,"393","aston_martin","7","-1","5.00","0","0","0","0","2026-01-22 01:39:03","2026-01-22 01:39:41"
"450","2021",NULL,"393","alfa","8","0","0.00","0","0","0","0","2026-01-22 01:39:03","2026-01-22 01:39:03"
"451","2021",NULL,"393","williams","9","0","0.00","0","0","0","0","2026-01-22 01:39:03","2026-01-22 01:39:03"
"452","2021",NULL,"393","haas","10","0","0.00","0","0","0","0","2026-01-22 01:39:03","2026-01-22 01:39:03"
"453","2021",NULL,"394","mercedes","1","0","141.00","3","0","0","0","2026-01-22 01:39:05","2026-01-22 01:39:05"
"454","2021",NULL,"394","red_bull","2","0","112.00","1","0","0","0","2026-01-22 01:39:05","2026-01-22 01:39:05"
"455","2021",NULL,"394","mclaren","3","0","65.00","0","0","0","0","2026-01-22 01:39:05","2026-01-22 01:39:05"
"456","2021",NULL,"394","ferrari","4","0","60.00","0","0","0","0","2026-01-22 01:39:05","2026-01-22 01:39:05"
"457","2021",NULL,"394","alpine","5","0","15.00","0","0","0","0","2026-01-22 01:39:05","2026-01-22 01:39:05"
"458","2021",NULL,"394","alphatauri","6","0","10.00","0","0","0","0","2026-01-22 01:39:05","2026-01-22 01:39:05"
"459","2021",NULL,"394","aston_martin","7","0","5.00","0","0","0","0","2026-01-22 01:39:05","2026-01-22 01:39:05"
"460","2021",NULL,"394","alfa","8","0","0.00","0","0","0","0","2026-01-22 01:39:05","2026-01-22 01:39:05"
"461","2021",NULL,"394","williams","9","0","0.00","0","0","0","0","2026-01-22 01:39:05","2026-01-22 01:39:05"
"462","2021",NULL,"394","haas","10","0","0.00","0","0","0","0","2026-01-22 01:39:05","2026-01-22 01:39:05"
"463","2021",NULL,"395","red_bull","1","1","149.00","2","0","0","0","2026-01-22 01:39:07","2026-01-22 01:39:41"
"464","2021",NULL,"395","mercedes","2","-1","148.00","3","0","0","0","2026-01-22 01:39:07","2026-01-22 01:39:41"
"465","2021",NULL,"395","mclaren","3","0","80.00","0","0","0","0","2026-01-22 01:39:07","2026-01-22 01:39:07"
"466","2021",NULL,"395","ferrari","4","0","78.00","0","0","0","0","2026-01-22 01:39:07","2026-01-22 01:39:07"
"467","2021",NULL,"395","aston_martin","5","2","19.00","0","0","0","0","2026-01-22 01:39:07","2026-01-22 01:39:41"
"468","2021",NULL,"395","alphatauri","6","0","18.00","0","0","0","0","2026-01-22 01:39:07","2026-01-22 01:39:07"
"469","2021",NULL,"395","alpine","7","-2","17.00","0","0","0","0","2026-01-22 01:39:07","2026-01-22 01:39:41"
"470","2021",NULL,"395","alfa","8","0","1.00","0","0","0","0","2026-01-22 01:39:07","2026-01-22 01:39:07"
"471","2021",NULL,"395","williams","9","0","0.00","0","0","0","0","2026-01-22 01:39:07","2026-01-22 01:39:07"
"472","2021",NULL,"395","haas","10","0","0.00","0","0","0","0","2026-01-22 01:39:07","2026-01-22 01:39:07"
"473","2021",NULL,"396","red_bull","1","0","174.00","3","0","0","0","2026-01-22 01:39:09","2026-01-22 01:39:09"
"474","2021",NULL,"396","mercedes","2","0","148.00","3","0","0","0","2026-01-22 01:39:09","2026-01-22 01:39:09"
"475","2021",NULL,"396","ferrari","3","1","94.00","0","0","0","0","2026-01-22 01:39:09","2026-01-22 01:39:41"
"476","2021",NULL,"396","mclaren","4","-1","92.00","0","0","0","0","2026-01-22 01:39:09","2026-01-22 01:39:41"
"477","2021",NULL,"396","alphatauri","5","1","39.00","0","0","0","0","2026-01-22 01:39:09","2026-01-22 01:39:41"
"478","2021",NULL,"396","aston_martin","6","-1","37.00","0","0","0","0","2026-01-22 01:39:09","2026-01-22 01:39:41"
"479","2021",NULL,"396","alpine","7","0","25.00","0","0","0","0","2026-01-22 01:39:09","2026-01-22 01:39:09"
"480","2021",NULL,"396","alfa","8","0","2.00","0","0","0","0","2026-01-22 01:39:09","2026-01-22 01:39:09"
"481","2021",NULL,"396","haas","9","1","0.00","0","0","0","0","2026-01-22 01:39:09","2026-01-22 01:39:41"
"482","2021",NULL,"396","williams","10","-1","0.00","0","0","0","0","2026-01-22 01:39:09","2026-01-22 01:39:41"
"483","2021",NULL,"397","red_bull","1","0","215.00","4","0","0","0","2026-01-22 01:39:11","2026-01-22 01:39:11"
"484","2021",NULL,"397","mercedes","2","0","178.00","3","0","0","0","2026-01-22 01:39:11","2026-01-22 01:39:11"
"485","2021",NULL,"397","mclaren","3","1","110.00","0","0","0","0","2026-01-22 01:39:11","2026-01-22 01:39:41"
"486","2021",NULL,"397","ferrari","4","-1","94.00","0","0","0","0","2026-01-22 01:39:11","2026-01-22 01:39:41"
"487","2021",NULL,"397","alphatauri","5","0","45.00","0","0","0","0","2026-01-22 01:39:11","2026-01-22 01:39:11"
"488","2021",NULL,"397","aston_martin","6","0","40.00","0","0","0","0","2026-01-22 01:39:11","2026-01-22 01:39:11"
"489","2021",NULL,"397","alpine","7","0","29.00","0","0","0","0","2026-01-22 01:39:11","2026-01-22 01:39:11"
"490","2021",NULL,"397","alfa","8","0","2.00","0","0","0","0","2026-01-22 01:39:11","2026-01-22 01:39:11"
"491","2021",NULL,"397","williams","9","1","0.00","0","0","0","0","2026-01-22 01:39:11","2026-01-22 01:39:41"
"492","2021",NULL,"397","haas","10","-1","0.00","0","0","0","0","2026-01-22 01:39:11","2026-01-22 01:39:41"
"493","2021",NULL,"398","red_bull","1","0","252.00","5","0","0","0","2026-01-22 01:39:13","2026-01-22 01:39:13"
"494","2021",NULL,"398","mercedes","2","0","212.00","3","0","0","0","2026-01-22 01:39:13","2026-01-22 01:39:13"
"495","2021",NULL,"398","mclaren","3","0","120.00","0","0","0","0","2026-01-22 01:39:13","2026-01-22 01:39:13"
"496","2021",NULL,"398","ferrari","4","0","108.00","0","0","0","0","2026-01-22 01:39:13","2026-01-22 01:39:13"
"497","2021",NULL,"398","alphatauri","5","0","46.00","0","0","0","0","2026-01-22 01:39:13","2026-01-22 01:39:13"
"498","2021",NULL,"398","aston_martin","6","0","44.00","0","0","0","0","2026-01-22 01:39:13","2026-01-22 01:39:13"
"499","2021",NULL,"398","alpine","7","0","31.00","0","0","0","0","2026-01-22 01:39:13","2026-01-22 01:39:13"
"500","2021",NULL,"398","alfa","8","0","2.00","0","0","0","0","2026-01-22 01:39:13","2026-01-22 01:39:13"
"501","2021",NULL,"398","williams","9","0","0.00","0","0","0","0","2026-01-22 01:39:13","2026-01-22 01:39:13"
"502","2021",NULL,"398","haas","10","0","0.00","0","0","0","0","2026-01-22 01:39:13","2026-01-22 01:39:13"
"503","2021",NULL,"399","red_bull","1","0","286.00","6","0","0","0","2026-01-22 01:39:15","2026-01-22 01:39:15"
"504","2021",NULL,"399","mercedes","2","0","242.00","3","0","0","0","2026-01-22 01:39:15","2026-01-22 01:39:15"
"505","2021",NULL,"399","mclaren","3","0","141.00","0","0","0","0","2026-01-22 01:39:15","2026-01-22 01:39:15"
"506","2021",NULL,"399","ferrari","4","0","122.00","0","0","0","0","2026-01-22 01:39:15","2026-01-22 01:39:15"
"507","2021",NULL,"399","alphatauri","5","0","48.00","0","0","0","0","2026-01-22 01:39:15","2026-01-22 01:39:15"
"508","2021",NULL,"399","aston_martin","6","0","44.00","0","0","0","0","2026-01-22 01:39:15","2026-01-22 01:39:15"
"509","2021",NULL,"399","alpine","7","0","32.00","0","0","0","0","2026-01-22 01:39:15","2026-01-22 01:39:15"
"510","2021",NULL,"399","alfa","8","0","2.00","0","0","0","0","2026-01-22 01:39:15","2026-01-22 01:39:15"
"511","2021",NULL,"399","williams","9","0","0.00","0","0","0","0","2026-01-22 01:39:15","2026-01-22 01:39:15"
"512","2021",NULL,"399","haas","10","0","0.00","0","0","0","0","2026-01-22 01:39:15","2026-01-22 01:39:15"
"513","2021",NULL,"400","red_bull","1","0","289.00","6","0","0","0","2026-01-22 01:39:17","2026-01-22 01:39:17"
